,stop_id,stop_code,stop_name,stop_desc,stop_lat,stop_lon,zone_id,stop_url,location_type,count
0,2019,2019,NB 24 ST SE @ 86 AV SE,,50.977379,-113.99876,,,0,194
1,2024,2024,SB Edmonton TR @ 6 AV NE,,51.05773,-114.054426,,,0,41
2,2028,2028,WB Symons Valley Py @ Sage Meadows Gr NW,,51.16823,-114.12602,,,0,29
3,2029,2029,EB Symons Valley PY @ Sage Meadows GR NW,,51.167914,-114.124538,,,0,31
4,2030,2030,SB 7 ST SW @ 7 AVE SW,,51.047054,-114.078824,,,0,194
5,2031,2031,WB Nolan Hill GA @ Shaganappi TR NW,,51.179948,-114.161056,,,0,27
6,2038,2038,EB Nolan Hill GA @ Nolanfield WY NW,,51.178968,-114.162749,,,0,29
7,2042,2042,WB 33 AV @ 22 ST SW,,51.024085,-114.114915,,,0,41
8,2047,2047,WB Nolan Hill DR NW @ Nolanfield PT NW,,51.178825,-114.166086,,,0,27
9,2048,2048,SB Nolan Hill Bvd @ Nolancrest Gr NW,,51.178522,-114.170605,,,0,27
10,2049,2049,SB Nolan Hill Bv @ Nolan Hill Ave NW,,51.175463,-114.171763,,,0,27
11,2050,2050,SB Nolan Hill Bv @ Nolancliff Ct NW,,51.173536,-114.171222,,,0,27
12,2051,2051,SB Nolan Hill Bv @ Nolancliff Crescent nw,,51.173159,-114.168201,,,0,27
13,2052,2052,EB Nolan Hill BV @ Nolanshire GR NW,,51.172671,-114.164034,,,0,27
14,2053,2053,EB Nolan Hill BV @ Nolanshire PT 100 NW,,51.171515,-114.161943,,,0,27
15,2054,2054,NB Kincora Ga @ Shaganappi Tr NW,,51.16623,-114.147594,,,0,36
16,2055,2055,EB Nolan Hill DR @ Nolanfield PT NW,,51.178536,-114.16528,,,0,29
17,2056,2056,NB Nolan Hill Bv @ Nolan Hill Dr NW,,51.178384,-114.17033,,,0,29
18,2057,2057,WB Nolan Hill GA @ Nolan Hill DR NW,,51.178622,-114.163484,,,0,27
19,2059,2059,SB Shaganappi TR @ Nolan Hill BV NW,,51.17189,-114.154297,,,0,29
20,2062,2062,NB Shaganappi Tr @ Kincora Ga NW,,51.165898,-114.149075,,,0,27
21,2063,2063,SB Shaganappi TR @ Kincora GA NW,,51.165196,-114.148157,,,0,66
22,2064,2064,NB Shaganappi Tr @ Sherwood Ga NW,,51.163652,-114.143676,,,0,63
23,2066,2066,WB Nolan Hill BV @ Nolanshire PT 100 NW,,51.171716,-114.162004,,,0,29
24,2067,2067,WB Nolan Hill BV @ Nolanshire CR NW,,51.173239,-114.16471,,,0,29
25,2068,2068,WB Nolan Hill BV @ Nolancrest HT NW,,51.173223,-114.16926,,,0,29
26,2069,2069,NB Nolan Hill Bv @ Nolancrest Ga NW,,51.174153,-114.171418,,,0,29
27,2070,2070,NB Nolan Hill Bv @ Nolan Hill Ave NW,,51.176296,-114.17147,,,0,29
28,2073,2073,NB Shaganappi Tr @ Symons Valley PY NW,,51.168325,-114.151514,,,0,31
29,2076,2076,EB Symons Valley PY @ Kincora GA NW,,51.167872,-114.145687,,,0,63
30,2078,2078,SB Shaganappi TR @ 128 AV NW,,51.167271,-114.151729,,,0,66
31,2079,2079,NB Sherwood Bv @ Sherwood Ga NW,,51.162996,-114.150612,,,0,36
32,2080,2080,EB Sherwood GA @ Sherwood SQ NW,,51.16297,-114.14598,,,0,36
33,2081,2081,WB Sherwood Ga @ Sherwood Sq NW,,51.16335,-114.146848,,,0,37
34,2082,2082,WB Sage Hill BV@ Sage Hill PS NW,,51.170291,-114.148678,,,0,93
35,2083,2083,WB Sage Hill BV @ E. of  Shaganappi Tr NW,,51.170521,-114.151023,,,0,93
36,2084,2084,NB 29 ST NE @ 23 AV NE,,51.073069,-113.991742,,,0,41
37,2088,2088,SB Symons Valley PY @ Evanston DR (North Leg) NW,,51.177803,-114.105973,,,0,31
38,2089,2089,SB Symons Valley PY @ Evanston DR (South Leg) NW,,51.172858,-114.108926,,,0,29
39,2090,2090,SB Symons Valley PY @ Evanspark Cir,,51.170287,-114.110476,,,0,29
40,2091,2091,YYC Airport International Terminal,,51.130857,-114.006519,,,0,79
41,2092,2092,NB Shaganappi Tr @ Nolan Hill Bv NW,,51.173174,-114.154754,,,0,27
42,2093,2093,NB Shaganappi Tr @ Sage Valley Bv NW,,51.175599,-114.156727,,,0,27
43,2094,2094,SB Sherview DR @ Symons Valley PY NW,,51.167274,-114.160809,,,0,56
44,2095,2095,SB Sherview DR @ Sherwood BV (North Leg) NW,,51.164761,-114.160328,,,0,56
45,2096,2096,NB Sherview Dr @ Sherwood Bv (South Leg) NW,,51.163272,-114.159425,,,0,60
46,2097,2097,NB Sherview Dr @ Sherwood Bv (North Leg) NW,,51.165861,-114.160298,,,0,60
47,2098,2098,NB Sherwood Dr @ Symons Valley Py NW,,51.168894,-114.160413,,,0,29
48,2099,2099,SB Shaganappi TR @ Nolan Hill GA NW,,51.179286,-114.15997,,,0,29
49,2112,2112,EB Auburn Bay DR @ S.leg Auburn Glen HT SE,,50.894138,-113.95618,,,0,42
50,2113,2113,EB Auburn Bay DR @ Auburn Glen GR SE,,50.897821,-113.952971,,,0,42
51,2114,2114,EB Auburn Bay DR @ Auburn Glen DR SE,,50.898699,-113.950632,,,0,42
52,2115,2115,EB Auburn Bay DR @ 56 ST SE,,50.899168,-113.947542,,,0,42
53,2118,2118,WB Mahogany GA @ Mahogany BV SE,,50.899726,-113.937664,,,0,43
54,2119,2119,WB Auburn Bay DR @ Auburn Meadows Pl,,50.899267,-113.948747,,,0,43
55,2120,2120,WB Auburn Bay DR @ Auburn Glen DR SE,,50.898746,-113.951509,,,0,43
56,2121,2121,WB Auburn Bay DR @ Auburn Glen GR SE,,50.898018,-113.953038,,,0,43
57,2122,2122,WB Auburn Bay DR @ Auburn Glen WY SE,,50.896211,-113.954912,,,0,43
58,2123,2123,WB Cranston DR @ Cranston BV,,50.891879,-113.985865,,,0,63
59,2124,2124,SB Cranston DR @ Cranston GA SE,,50.888279,-113.988168,,,0,63
60,2125,2125,SB Cranston DR @ Cranston WY SE,,50.885849,-113.98823,,,0,63
61,2126,2126,EB Cranston DR @ W. Leg Cranridge HT SE,,50.882874,-113.986014,,,0,63
62,2127,2127,EB Cranston DR @ Cranridge TC SE,,50.881978,-113.981265,,,0,63
63,2128,2128,NB New Brighton DR @ New Brighton AV SE,,50.922277,-113.936806,,,0,38
64,2129,2129,EB New Brighton DR @ New Brighton HT SE,,50.916486,-113.940834,,,0,38
65,2130,2130,EB New Brighton DR @ New Brighton PA SE,,50.917433,-113.937045,,,0,38
66,2131,2131,EB New Brighton DR @ New Brighton GV SE,,50.919602,-113.935511,,,0,38
67,2132,2132,WB New Brighton DR @ BrightonCrest PT SE,,50.923482,-113.938641,,,0,38
68,2133,2133,WB New Brighton DR @ BrightonCrest TC SE,,50.922111,-113.942857,,,0,38
69,2134,2134,WB New Brighton DR @ BrightonCrest RI SE,,50.921989,-113.946441,,,0,38
70,2135,2135,WB New Brighton DR @ BrightonCrest MR SE,,50.924384,-113.949381,,,0,38
71,2148,2148,WB 14 AV SW @ Ascot DR,,51.045264,-114.220049,,,0,37
72,2149,2149,Tuscany Station - Rocky Ridge Terminal,,51.135169,-114.234791,,,0,78
73,2150,2150,Tuscany Station - Rocky Ridge Terminal,,51.135036,-114.234832,,,0,76
74,2151,2151,Tuscany Station - Rocky Ridge Terminal,,51.134928,-114.234981,,,0,76
75,2152,2152,Tuscany Station - Tuscany Terminal,,51.133697,-114.235998,,,0,76
76,2153,2153,Tuscany Station - Tuscany Terminal,,51.133564,-114.235609,,,0,78
77,2155,2155,SB 23 ST NE @ 37 AV NE,,51.086447,-114.00518,,,0,26
78,2156,2156,SB 23 ST NE @ 35 AV NE,,51.083712,-114.005231,,,0,26
79,2157,2157,NB 23 ST NE @ 35 AV NE,,51.083995,-114.00499,,,0,26
80,2158,2158,NB 23 ST NE @ 32 AV NE,,51.082219,-114.004926,,,0,26
81,2165,2165,SB 5 ST SW @ 5 AV SW,,51.048411,-114.073787,,,0,41
82,2166,2166,EB 17 AV SE @ 65 ST SE,,51.037756,-113.93853,,,0,49
83,2168,2168,WB 8 AV NE @ 13A ST NE,,51.059211,-114.029067,,,0,41
84,2170,2170,SB Sheriff King ST @ N of 194 AV SW,,50.878274,-114.071086,,,0,53
85,2171,2171,EB Mahogany GA @ 52 ST SE,,50.899287,-113.943253,,,0,42
86,2172,2172,SB Sheriff King ST @ 194 AV SW,,50.876435,-114.071147,,,0,53
87,2173,2173,SB Sheriff King ST @ Yorkville AV SW,,50.874604,-114.071153,,,0,53
88,2174,2174,EB Belmont BV @ Sheriff King ST,,50.870365,-114.069917,,,0,53
89,2175,2175,EB Belmont BV @ Belmont DR,,50.870334,-114.063528,,,0,53
90,2176,2176,SB Sheriff King ST @ Silverado WY SW,,50.881776,-114.071102,,,0,53
91,2177,2177,EB 17 AV SE @ 68 ST SE,,51.037709,-113.934062,,,0,11
92,2178,2178,EB 17th AV SE @ 70th ST SE,,51.037693,-113.929646,,,0,76
93,2179,2179,WB 17 AV SE @ 68 ST SE,,51.037919,-113.936097,,,0,12
94,2180,2180,WB 17th AV SE @ 70th ST SE,,51.037941,-113.930992,,,0,78
95,2181,2181,NB Ogden RD @ 78 AV SE,,50.982976,-113.998665,,,0,71
96,2183,2183,NB 19 ST NE @ Aero DR,,51.137757,-114.013008,,,0,11
97,2184,2184,WB 100 AV NE @ 19 ST NE,,51.143451,-114.014166,,,0,11
98,2185,2185,NB Freeport BV @ 104 AV NE,,51.147475,-114.019984,,,0,11
99,2186,2186,SB 16 ST NE @ 104 AV NE,,51.146391,-114.0202,,,0,5
100,2187,2187,SB 19 ST NE @ 100 AV NE,,51.142816,-114.013493,,,0,5
101,2188,2188,WB Freeport BV @ 19 St NE,,51.150917,-114.013991,,,0,5
102,2190,2190,WB Freeport BV @ Barlow TR NE,,51.150946,-114.002893,,,0,5
103,2191,2191,WB Aero DR @ Aero CR E legNE,,51.136701,-114.026764,,,0,15
104,2192,2192,EB Freeport BV @ Freeport WY NE,,51.150589,-114.009294,,,0,11
105,2193,2193,SB Shaganappi TR @ Sage Valley BV NW,,51.175259,-114.15722,,,0,29
106,2194,2194,EB Sage Hill BV @ Shaganappi TR NW,,51.17017,-114.150749,,,0,60
107,2195,2195,EB Sage Hill BV @ Sage Hill PS NW,,51.170497,-114.14589,,,0,60
108,2196,2196,WB Symons Valley Py (128 Av NW) @ Kincora Ga NW,,51.16819,-114.147955,,,0,29
109,2197,2197,EB Symons Valley PY @ Shaganappi TR NW,,51.167864,-114.15046,,,0,27
110,2198,2198,EB Sage Hill DR @ Sage Hill GD NW,,51.171051,-114.13744,,,0,39
111,2201,2201,SB Walden DR SE @ acr. Walden TC SE,,50.87408,-114.036571,,,0,43
112,2202,2202,SB Walden DR SE @ Walden CR SE (n.leg),,50.872983,-114.03818,,,0,43
113,2203,2203,SB Walden DR SE @ Walden PA SE,,50.869042,-114.036827,,,0,43
114,2204,2204,EB Walden DR @ Walden HT SE,,50.868065,-114.032462,,,0,43
115,2205,2205,SB Legacy Village WY/ Legacy Vil RD SE,,50.859105,-114.024902,,,0,43
116,2206,2206,EB Legacy Village WY @ Legacy BV SE,,50.857198,-114.020756,,,0,43
117,2207,2207,SB Legacy CI SE @ Legacy Village WY,,50.857342,-114.01735,,,0,43
118,2208,2208,EB Legacy CI SE @ Legacy HT SE,,50.855269,-114.015008,,,0,43
119,2209,2209,NB Legacy View SE @ Legacy CI SE,,50.854735,-114.011908,,,0,43
120,2210,2210,NB Legacy VW SE @ Legacy MR  SE,,50.858409,-114.009198,,,0,43
121,2211,2211,WB Legacy CI @ Legacy VW SE,,50.860951,-114.009915,,,0,43
122,2212,2212,WB Legacy CI @ Legacy CM SE,,50.860945,-114.012454,,,0,43
123,2222,2222,EB Walden DR @ Walgrove CV SE,,50.866101,-114.025322,,,0,43
124,2223,2223,EB Walden DR @ Walgrove DR SE,,50.865485,-114.023371,,,0,43
125,2224,2224,SB Walgrove  DR SE  @ Walgrove CO SE,,50.864707,-114.022172,,,0,43
126,2234,2234,WB 6 AV @ 1 ST SE,,51.04753,-114.061468,,,0,162
127,2240,2240,NB Walden CM @ 210 AV SE,,50.866087,-114.028437,,,0,43
128,2241,2241,WB Walden DR @ Walden HT SE,,50.868201,-114.033036,,,0,43
129,2242,2242,NB Walden DR @ acr sleg of Walden CR SE,,50.8706,-114.037791,,,0,43
130,2243,2243,NB Walden DR @ acr nleg of Walden CR SE,,50.873308,-114.03752,,,0,43
131,2246,2246,SB Legacy Village Li @ 210 Av SE,,50.86381,-114.026257,,,0,43
132,2248,2248,EB Shawville WY @ W. of Shawville LI SE,,50.899905,-114.06879,,,0,168
133,2249,2249,SB Shawville LI @ Shawville WY SE,,50.89931,-114.066536,,,0,84
134,2250,2250,NB Shawville BV @ Shawville GA SE,,50.899854,-114.063378,,,0,124
135,2253,2253,EB 58 AV @ 37 ST SW,,51.000861,-114.140597,,,0,46
136,2254,2254,EB 8 AV NE @ 13A ST NE,,51.059082,-114.028984,,,0,41
137,2255,2255,WB Richardson WY @ Bishop WY SW,,51.015129,-114.12954,,,0,98
138,2256,2256,NB Redstone ST@ 128 AV NE,,51.166404,-113.96182,,,0,79
139,2257,2257,WB  Redstone DR @  Redstone ST NE,,51.168534,-113.962568,,,0,79
140,2258,2258,NB  Redstone GV @  Redstone DR NE,,51.168767,-113.965782,,,0,79
141,2259,2259,NB  Redstone GV @  Redstone VI NE,,51.170193,-113.965713,,,0,79
142,2260,2260,NB  Redstone GV @  Redstone PZ NE,,51.17196,-113.965037,,,0,79
143,2261,2261,NB  Redstone GV @  Redstone AV NE,,51.172882,-113.963533,,,0,79
144,2262,2262,SB  Redstone ST @  Redstone AV NE,,51.172891,-113.9614,,,0,79
145,2263,2263,SB  Redstone ST @  Redstone PA NE,,51.169737,-113.96219,,,0,79
146,2265,2265,EB Skyview Ranch DR @ 52 ST NE,,51.15788,-113.957853,,,0,79
147,2267,2267,EB 9 AV SW @ 81 ST SW,,51.059553,-114.20549,,,0,37
148,2268,2268,WB 9 AV SW @ 77 ST SW,,51.059753,-114.199942,,,0,36
149,2269,2269,EB Skyview Ranch DR @ Skyview Ranch ST NE,,51.157949,-113.954998,,,0,79
150,2270,2270,NB Skyview Ranch BV @ Skyview Point CM NE,,51.158607,-113.950978,,,0,79
151,2271,2271,NB Skyview Ranch BV @ Skyview Ranch AV NE,,51.161371,-113.95079,,,0,79
152,2272,2272,WB Skyview Ranch RD @ Skyview Ranch BV NE,,51.162962,-113.951745,,,0,79
153,2273,2273,EB 80 AV NE @ Martha's Meadows DR,,51.125089,-113.963616,,,0,130
154,2274,2274,EB Country Hills BV @ 14 ST NE,,51.154112,-114.0262,,,0,79
155,2275,2275,WB Country Hills BV @ 14 ST NE,,51.154442,-114.029143,,,0,81
156,2276,2276,EB 64 AV NE @ 11 ST NE,,51.110424,-114.034978,,,0,40
157,2277,2277,NB Aero DR @ S of Aero GT NE,,51.116615,-114.029923,,,0,40
158,2278,2278,NB Aero DR @ S of Aero GT NE,,51.119224,-114.032887,,,0,40
159,2279,2279,WB Aero GT @ W of Aero DR NE,,51.121226,-114.037148,,,0,40
160,2280,2280,SB Aero DR @ Aero GA NE,,51.121111,-114.036187,,,0,38
161,2281,2281,SB Aero DR NE @ Bldg 25,,51.119402,-114.033443,,,0,38
162,2282,2282,SB Aero DR NE @ Bldg 21,,51.116144,-114.029894,,,0,38
163,2283,2283,WB 36 AV NE @ 6 ST NE,,51.085027,-114.048009,,,0,1
164,2286,2286,EB 162 AV SW @ 24 ST SW,,50.906538,-114.116708,,,0,87
165,2287,2287,NB 52 ST NE adjacent to Saddlecreek CR,,51.127999,-113.958162,,,0,34
166,2288,2288,WB Saddlemont BV @ Saddleland DR NE,,51.129525,-113.939543,,,0,40
167,2289,2289,SB Redstone ST @ Redstone DR NE,,51.167723,-113.962158,,,0,79
168,2290,2290,SB Redstone ST @ Redstone WY NE,,51.166368,-113.962184,,,0,79
169,2291,2291,WB Country Hills BV @ E of Barlow TR NE,,51.154505,-113.994621,,,0,86
170,2292,2292,EB Country Hills BV @ Barlow TR NE,,51.154126,-113.999932,,,0,90
171,2293,2293,WB Country Hills BV @ Barlow TR NE,,51.154519,-114.002976,,,0,81
172,2294,2294,WB Country Hills BV @ Stonehill DR NE,,51.154517,-114.007942,,,0,81
173,2295,2295,WB Aero WY @ Aero CO NE,,51.131082,-114.029233,,,0,15
174,2296,2296,EB Areo DR @ Aero WY NE,,51.136394,-114.027448,,,0,16
175,2297,2297,EB Cityscape BV @ Metis TR NE,,51.147064,-113.969049,,,0,96
176,2299,2299,WB 17th AV SE @ 84th ST SE,,51.037989,-113.909172,,,0,90
177,2300,2300,NB 52 ST SE @ 94 AV SE,,50.969225,-113.958202,,,0,96
178,2301,2301,SB 52 ST SE @ 94 AV SE,,50.968012,-113.958837,,,0,73
179,2302,2302,NB 52 ST SE @ Copperfield GA,,50.910794,-113.949361,,,0,68
180,2303,2303,SB 52 ST SE @ Copperfield GA,,50.910577,-113.949788,,,0,73
181,2306,2306,SB 2A ST SE @ N. of 25 AV SE,,51.032559,-114.058432,,,0,30
182,2308,2308,SB Arbour Lake WY @ Arbour Ridge WY NW,,51.137378,-114.190136,,,0,77
183,2309,2309,SB 10 ST NW @ S.of Gladstone RD,,51.056238,-114.08605,,,0,46
184,2311,2311,NB 68 ST SE @ N Leg of Applewood Dr SE,,51.045776,-113.934889,,,0,13
185,2312,2312,NB 68 ST NE @ Abbercove Dr,,51.050129,-113.934914,,,0,13
186,2313,2313,NB 68 ST NE @ 4 AV SE,,51.055942,-113.934861,,,0,48
187,2314,2314,NB 68 ST NE @ Abbotsford Dr,,51.062998,-113.934913,,,0,13
188,2315,2315,NB 68 ST NE @ Monterey Square,,51.069579,-113.934913,,,0,13
189,2316,2316,NB 68 ST NE @ California BV,,51.072812,-113.934848,,,0,13
190,2317,2317,NB 68 ST NE @ 26 AV NE,,51.076276,-113.934879,,,0,13
191,2318,2318,NB 68 ST NE @ 32 AV NE,,51.082059,-113.934813,,,0,13
192,2319,2319,NB 68 ST NE @ 37 AV NE,,51.08673,-113.934917,,,0,13
193,2320,2320,NB 68 ST NE @ 43 AV NE,,51.091913,-113.93492,,,0,13
194,2321,2321,NB 68 ST NE @ Falconridge Dr,,51.101643,-113.93494,,,0,13
195,2322,2322,NB 68 ST NE @ Falton CL,,51.103624,-113.934897,,,0,13
196,2323,2323,NB 68 ST NE @ Faldale CL,,51.105139,-113.934827,,,0,13
197,2324,2324,NB 68 ST NE @ Falshire DR,,51.108224,-113.93483,,,0,13
198,2325,2325,SB 68 ST NE @ Falshire DR,,51.107649,-113.935403,,,0,12
199,2326,2326,SB 68 ST NE @ Faldale CL,,51.104809,-113.935389,,,0,12
200,2327,2327,SB 68 ST NE @ Falton CL,,51.103125,-113.935315,,,0,12
201,2328,2328,SB 68 ST NE @ Coral Springs BV,,51.098709,-113.935391,,,0,12
202,2329,2329,SB 68 ST NE @ 43 AV NE,,51.091288,-113.935392,,,0,71
203,2330,2330,SB 68 ST NE @ Laguna WY,,51.084106,-113.935353,,,0,12
204,2331,2331,SB 68 ST NE @ 32 AV NE,,51.080846,-113.935369,,,0,12
205,2332,2332,SB 68 ST NE @ 26 AV NE,,51.075726,-113.93537,,,0,12
206,2333,2333,SB 68 ST NE @ 22 AV NE,,51.072384,-113.93535,,,0,12
207,2334,2334,SB 68 ST NE @ Pinetree CR,,51.069834,-113.935342,,,0,12
208,2335,2335,SB 68 ST NE @ 12 AV NE,,51.062559,-113.935424,,,0,12
209,2336,2336,SB 68 ST NE @ 8 AV NE,,51.059298,-113.935409,,,0,12
210,2337,2337,SB 68 ST NE @ 4 AV NE,,51.055536,-113.935422,,,0,12
211,2338,2338,SB 68 ST NE @ Memorial DR,,51.051888,-113.935438,,,0,12
212,2339,2339,SB 68 ST SE @ Abbercove DR,,51.049886,-113.935407,,,0,12
213,2340,2340,SB 68 ST @ Applewood DR (N. Leg) SE,,51.045367,-113.93537,,,0,12
214,2341,2341,SB 68 ST @ Applewood DR (S. Leg) SE,,51.042275,-113.935314,,,0,51
215,2342,2342,SB 68 ST SE @ 14 AV SE,,51.040092,-113.935317,,,0,12
216,2343,2343,WB 64 AV NE @ 68 ST NE,,51.110793,-113.936125,,,0,13
217,2347,2347,EB 106 AV SE @ Distribution center,,50.96451,-113.942604,,,0,57
218,2348,2348,NB Hidden Valley Dr @ Hidden Valley Ga NW,,51.14753,-114.100441,,,0,79
219,2350,2350,31st Street NW Station (EB),,51.081731,-114.129957,,,0,157
220,2363,2363, NB Belmont ST SW @ Belmont BV SW,,50.871079,-114.06086,,,0,53
221,2366,2366,NB 16 ST NE @ 100 AV NE,,51.143949,-114.019999,,,0,11
222,2367,2367,EB 100 AV NE @ 16 ST NE,,51.143289,-114.019446,,,0,5
223,2368,2368,WB Aero DR @ 19 ST NE,,51.137628,-114.014243,,,0,5
224,2369,2369,NB Aero DR @ Aero WY E leg,,51.133946,-114.0363,,,0,15
225,2370,2370,EB Aero DR @ Aero CR W  leg,,51.136386,-114.034274,,,0,15
226,2371,2371,SB Centre St S @ 4 Ave SW,,51.049496,-114.062855,,,0,38
227,2373,2373,EB Country Village RD @ Harvest Hills BV NE,,51.160255,-114.068717,,,0,40
228,2374,2374,SB 52 St NE @ Country Hills Bv,,51.155071,-113.958594,,,0,79
229,2375,2375,NB 52 St NE @ Country Hills Bv,,51.155135,-113.958193,,,0,79
230,2376,2376,Saddletowne LRT Station SB,,51.12457,-113.948814,,,0,54
231,2377,2377,WB 6 AV SW @ 9 ST SW,,51.048079,-114.083085,,,0,27
232,2378,2378,NB 52 ST NE @ Saddletree DR,,51.130383,-113.958164,,,0,34
233,2379,2379,NB 52 ST NE @ 88 AV NE,,51.133109,-113.958209,,,0,34
234,2380,2380,EB Savanna BV @ Savanna CM NE,,51.134915,-113.955108,,,0,34
235,2381,2381,EB Savanna BV @ Savanna ST NE,,51.135002,-113.952804,,,0,34
236,2382,2382,SB Savanna ST @ Savanna BV NE,,51.134091,-113.952531,,,0,34
237,2383,2383,SB Saddlridge DR @ 88 AV NE,,51.131978,-113.952523,,,0,34
238,2384,2384,NB 14 ST NE @ 115 AV NE,,51.158123,-114.026351,,,0,82
239,2385,2385,NB 14 ST NE @ 120 AV NE,,51.163265,-114.024644,,,0,82
240,2386,2386,EB Stoney Bv @ CT Stoney Garage,,51.165046,-114.02061,,,0,163
241,2387,2387,SB 18 ST NE @ 120 AV NE,,51.164821,-114.01682,,,0,81
242,2388,2388,WB 120 AV NE @ 16 ST NE,,51.161845,-114.023775,,,0,81
243,2389,2389,SB 14 ST NE @ 115 AV NE,,51.157553,-114.027547,,,0,81
244,2397,2397,EB 50 AV SE @ 23 ST SE Near-side,,51.008651,-114.004462,,,0,20
245,2398,2398,EB 50 AV @ 35 ST SE,,51.008654,-113.981245,,,0,20
246,2399,2399,WB 68 AV SE @ 55 ST SE,,50.994362,-113.951858,,,0,20
247,2401,2401,NB Aspen Stone BV @ 17 AV SW,,51.038416,-114.216605,,,0,37
248,2402,2402,EB Aspen Stone BV @ Aspen Stone RD SW,,51.04094,-114.212924,,,0,37
249,2403,2403,NB 89 ST @ 9 AV SW,,51.059919,-114.216592,,,0,37
250,2404,2404,NB 89 ST @ Wentworth TC (N.leg) SW,,51.061868,-114.216591,,,0,37
251,2405,2405,EB 8 AV @ Wentworth SQ SW,,51.063209,-114.215044,,,0,37
252,2406,2406,EB Cityscape DR @ Cityscape PS NE,,51.152241,-113.961721,,,0,70
253,2407,2407,WB Cityscape BV @ Cityscape DR NE,,51.147286,-113.966919,,,0,105
254,2408,2408,NB Cityscape DR @ 104 AV NE,,51.147901,-113.966179,,,0,70
255,2409,2409,NB Cityscape DR@ Cityscape MR NE,,51.150786,-113.966137,,,0,70
256,2410,2410,NB Cityscape GA @ Cityscape DR,,51.152812,-113.958168,,,0,79
257,2411,2411,WB Cityscape DR @ Cityscape HE NE,,51.152438,-113.962781,,,0,79
258,2412,2412,WB 104 AV NE @ Metis TR,,51.147309,-113.971311,,,0,193
259,2413,2413,WB 104 AV NE @ 36 ST NE,,51.147203,-113.97876,,,0,86
260,2414,2414,EB 104 AV NE @ 36 ST NE,,51.146903,-113.980377,,,0,90
261,2415,2415,EB 104 AV NE @ Metis TR,,51.147094,-113.973102,,,0,197
262,2416,2416,WB 72 AV NE @ 10 ST NE,,51.117887,-114.040733,,,0,40
263,2417,2417,EB 72 AV NE @ 8 ST NE,,51.117711,-114.044381,,,0,38
264,2418,2418,WB 130 AV @ 50 ST SE,,50.932104,-113.962962,,,0,48
265,2419,2419,WB Cityscape Dr @ Cityscape Ga NE,,51.152416,-113.958812,,,0,79
266,2420,2420,YYC Airport International Terminal,,51.130855,-114.006525,,,0,38
267,2421,2421,SB Cityscape Dr @ Cityscape Mr NE,,51.150354,-113.966465,,,0,79
268,2423,2423,SB 19 ST SE @ Century RI,,51.048493,-114.008492,,,0,97
269,2424,2424,NB 52 ST SE @ 130 AV SE NB,,50.930623,-113.957774,,,0,68
270,2425,2425,NB Macleod TR @ S. of 61 AV SW,,50.99663,-114.071316,,,0,60
271,2426,2426,EB 61 AV SW @ 3 ST SW,,50.997581,-114.068982,,,0,60
272,2428,2428,WB 194 AV & Chaparral BV SE,,50.878314,-114.020837,,,0,28
273,2429,2429,EB 194 AV SE & Walden BV,,50.877621,-114.023638,,,0,28
274,2430,2430,NB Douglas Glen Term north bay,,50.953432,-113.997087,,,0,68
275,2431,2431,SB Douglas Glen Term north bay,,50.953497,-113.997483,,,0,49
276,2432,2432,NB Douglas Glen Term south bay,,50.953069,-113.997673,,,0,48
277,2433,2433,SB Douglas Glen Term south bay,,50.953123,-113.998126,,,0,67
278,2434,2434,NB 24 ST SE @ 86 AV SE,,50.977416,-113.998719,,,0,135
279,2436,2436,NB Douglas Glen Term south bay,,50.953065,-113.997686,,,0,4
280,2437,2437,SB Douglas Glen Term north bay,,50.953442,-113.997458,,,0,3
281,2438,2438,NB 24 ST SE @ Quarry Park BV,,50.963879,-114.001541,,,0,2
282,2450,2450,SB Seton WY @ Seton DR SE,,50.876023,-113.957746,,,0,34
283,2451,2451,Whitehorn Stn Parking,,51.087019,-113.983003,,,0,61
284,2452,2452,EB Masters RD @ Magnolia TC SE,,50.892188,-113.914401,,,0,67
285,2453,2453,NB Seton WY @ Seton AV SE,,50.872379,-113.956238,,,0,33
286,2454,2454,NB Seton WY SE @ Superstore (S of Seton CR),,50.874443,-113.956951,,,0,33
287,2455,2455,EB Seton DR @ Main ST SE,,50.876724,-113.950622,,,0,75
288,2456,2456,WB Seton DR @ Main ST SE,,50.877006,-113.950714,,,0,77
289,2457,2457,WB Seton DR @ 45 ST SE,,50.87723,-113.946207,,,0,77
290,2458,2458,WB  Front ST SE @ Seton WY,,50.880764,-113.956149,,,0,63
291,2459,2459,NB 45 ST SE @ Seton DR,,50.87775,-113.94553,,,0,75
292,2460,2460,SB Seton WY @ Front ST SE,,50.881077,-113.957401,,,0,42
293,2461,2461,SB Seton WY @ Market ST SE,,50.879208,-113.957025,,,0,42
294,2462,2462,EB Seton DR @ Seton WY SE,,50.876771,-113.955774,,,0,75
295,2463,2463,NB 45 ST SE @ Market ST SE,,50.879885,-113.946491,,,0,75
296,2464,2464,NB 45 ST SE @ Front ST SE,,50.883481,-113.948124,,,0,75
297,2465,2465,SB 45 ST SE @ Market ST SE,,50.881255,-113.94781,,,0,140
298,2466,2466,SB 45 ST SE @ Seton DR SE,,50.87787,-113.946141,,,0,77
299,2467,2467,NB Seton WY @ Seton LI SE,,50.877238,-113.956783,,,0,43
300,2468,2468,NB Seton WY @ Market ST SE,,50.879973,-113.956401,,,0,43
301,2469,2469,Quarry Park Station (NB),,50.964002,-114.012166,,,0,84
302,2470,2470,SB 18 ST @ Rivervalley DR SE,,50.972396,-114.015928,,,0,38
303,2472,2472,NB 36 ST @ 104 AV NE,,51.147644,-113.981474,,,0,86
304,2473,2473,SB 36 ST NE @ Country Hills BV,,51.154012,-113.981848,,,0,51
305,2474,2474,WB Market ST @ 45 ST SE,,50.880926,-113.946944,,,0,122
306,2475,2475,WB Market ST @ 45 ST SE,,50.880677,-113.947812,,,0,63
307,2476,2476,50 AV SE / PATHWAY,,51.008639,-113.988678,,,0,20
308,2477,2477,EB Masters RD @ Magnolia LI SE,,50.892182,-113.917521,,,0,33
309,2478,2478,EB Silverado WY @ Silverado CM SW nearside,,50.881148,-114.073065,,,0,48
310,2480,2480,SB 18 ST SE @ Riverview CL,,50.965899,-114.0134,,,0,38
311,2481,2481,SB 18 ST @ 66 AV SE,,50.993716,-114.015868,,,0,38
312,2482,2482,NB 18 ST @ Riverglen DR (S. Leg) SE,,50.973176,-114.015439,,,0,38
313,2483,2483,EB Quarry Park BV @ Quarry WY SE,,50.96353,-114.015807,,,0,41
314,2484,2484,NB Quarry Park BV @ Quarry GA SE,,50.961689,-114.017425,,,0,41
315,2485,2485,SB Quarry Park RD @ N. of Quarry Park RD SE,,50.961616,-114.007382,,,0,41
316,2486,2486,Riverbend Station (SB),,50.976766,-114.016023,,,0,44
317,2487,2487,Deerfoot Meadows Station (EB),,50.987078,-114.043111,,,0,164
318,2488,2488,Fairmount Drive Station (EB),,50.979455,-114.060527,,,0,73
319,2489,2489,Deerfoot Meadows Station (WB),,50.987353,-114.040666,,,0,158
320,2490,2490,EB 5 AV & Centre St S fs,,51.048256,-114.061863,,,0,138
321,2491,2491,SB 1 ST @ 6 AV SW,,51.047287,-114.06555,,,0,137
322,2492,2492,NB 1 ST SW @ 6 AV SW,,51.047729,-114.065087,,,0,2
323,2493,2493,WB Symons Valley PY @ 14 St NW,,51.181606,-114.096173,,,0,41
324,2494,2494,EB Symons Valley PY @ N. Leg of Evanston WY NW,,51.180974,-114.099379,,,0,41
325,2495,2495,SB Symons Valley PY@N.of Evanston DR(South Leg) NW,,51.174936,-114.107813,,,0,60
326,2498,2498,Riverbend Station (NB),,50.976167,-114.015589,,,0,43
327,2501,2501,NB Wentworth RI @ Wentworth AV SW,,51.05902,-114.213347,,,0,37
328,2503,2503,WB 50 AV SE @ 36 ST SE,,51.008895,-113.977234,,,0,20
329,2504,2504,WB 50 AV SE @ 35 ST SE,,51.008901,-113.98208,,,0,20
330,2505,2505,WB 50 AV SE @ 25 ST SE,,51.008925,-113.999251,,,0,91
331,2506,2506,WB 50 AV SE @ 23 ST SE far-side,,51.008823,-114.004861,,,0,20
332,2507,2507,WB 42 AV SE @ 8 ST SE,,51.016178,-114.043629,,,0,20
333,2508,2508,NB Temple DR @ 37 AV NE,,51.086692,-113.939046,,,0,107
334,2509,2509,NB Temple DR @ Templegreen DR NE,,51.088514,-113.939114,,,0,107
335,2510,2510,SB Madigan DR @ 8 AV NE,,51.059883,-113.940624,,,0,61
336,2511,2511,SB Abbeydale DR @ Abbotsford DR NE,,51.060807,-113.927369,,,0,61
337,2512,2512,WB 8 AV SE @ Pensdale RD,,51.045303,-113.955043,,,0,61
338,2513,2513,SB Heritage Meadows WY @ S. of Heritage DR SW,,50.986583,-114.044329,,,0,67
339,2514,2514,WB Westwinds DR @ 47 ST NE,,51.10023,-113.966276,,,0,69
340,2515,2515,EB Westwinds DR @ 47 ST NE,,51.100037,-113.965533,,,0,71
341,2516,2516,31st Street NW Station (WB),,51.081909,-114.129909,,,0,190
342,2517,2517,WB Heritage Meadows WY @ 11 ST SE,,50.984603,-114.042903,,,0,71
343,2518,2518,SB 33 ST NE @ 12 AV NE,,51.062419,-113.986154,,,0,27
344,2519,2519,EB 8 AV NE @ 33 ST NE,,51.059476,-113.985493,,,0,27
345,2521,2521,NB 36 ST NE @ 108 AV NE,,51.151495,-113.981536,,,0,86
346,2522,2522,SB 36 ST NE @ 108 AV NE,,51.150777,-113.981839,,,0,90
347,2529,2529,EB Country Hills BV @ 52 ST NE (farside),,51.154126,-113.957,,,0,26
348,2532,2532,NB Cornerstone BV @ Cornerstone AV NE,,51.161201,-113.937898,,,0,28
349,2533,2533,WB 128 AV NE @ Cornerstone ST,,51.165548,-113.943135,,,0,28
350,2534,2534,NB Redstone BV @ 128 AV NE,,51.165872,-113.950869,,,0,28
351,2535,2535,WB Redstone DR @ Redstone BV NE,,51.168464,-113.952018,,,0,28
352,2537,2537,SB Redstone BV @ Redstone DR NE,,51.168053,-113.951306,,,0,28
353,2538,2538,EB 128 AV NE @ Redstone BV,,51.165197,-113.950702,,,0,28
354,2539,2539,SB Cornerstone BV @ 128 AV NE,,51.16496,-113.938364,,,0,28
355,2543,2543,WB Country Hills BV @ 52 ST NE (farside),,51.154431,-113.959781,,,0,28
356,2544,2544,WB 88 AV NE @ SAVANNA ST,,51.132709,-113.952837,,,0,26
357,2545,2545,WB 88 AV NE @ 46 ST NE,,51.132639,-113.966291,,,0,26
358,2546,2546,EB 88 AV NE @ 46 ST NE,,51.132301,-113.965245,,,0,28
359,2547,2547,EB Stoney BV @ 15 ST NE,,51.16502,-114.024568,,,0,82
360,2548,2548,WB 120 AV NE @ 18 ST NE,,51.161841,-114.017182,,,0,81
361,2549,2549,WB 88 AV NE @ 52 ST NE,,51.132688,-113.959098,,,0,26
362,2550,2550,NB Skyview CI @ Country Hills BV,,51.155017,-113.952327,,,0,28
363,2551,2551,NB Cornerstone BV @ Cornerstone MR,,51.164498,-113.937892,,,0,28
364,2552,2552,WB 128 AV NE @ 60 ST NE,,51.165602,-113.947805,,,0,28
365,2553,2553,NB Redstone BV @ Red Embers WY,,51.16722,-113.95086,,,0,28
366,2554,2554,WB Redstone DR @ Red Embers SQ,,51.168465,-113.954225,,,0,28
367,2555,2555,WB Redstone DR @ Red Embers GA,,51.168471,-113.958511,,,0,28
368,2558,2558,SB Redstone BV @ Red Embers WY,,51.16664,-113.951309,,,0,28
369,2559,2559,EB 128 AV NE @ 60 ST NE,,51.165113,-113.945991,,,0,28
370,2560,2560,EB 128 AV NE @ Cornerstone ST,,51.16514,-113.942113,,,0,28
371,2561,2561,WB Skyview CI @ 60 ST NE,,51.158174,-113.947628,,,0,28
372,2562,2562,WB Country Hills BV @ Skyview CI,,51.154514,-113.953197,,,0,28
373,2563,2563,EB 88 AV NE @ 52 ST NE,,51.13235,-113.957601,,,0,28
374,2564,2564,EB 88 AV NE @ Savanna ST,,51.132305,-113.952076,,,0,28
375,2565,2565,WB 66 AV @ Lakeside CR (W. Leg) SW,,50.994697,-114.134783,,,0,46
376,2566,2566,SB Grey Eagle Blvd @ Grey Eagle Dr SW,,51.00421,-114.142948,,,0,43
377,2569,2569,NB Lakeview DR @ Ladbrooke DR SW,,51.002236,-114.135215,,,0,46
378,2570,2570,NB Grey Eagle Blvd @ Grey Eagle Dr SW,,51.003917,-114.142497,,,0,45
379,2571,2571,NB Lakeview DR @ 54 AV SW,,51.004527,-114.136471,,,0,45
380,2572,2572,WB Lakeview DR @ N. of La Salle CR (N. Leg) SW,,51.006826,-114.137946,,,0,45
381,2573,2573,SB 37 ST @ 54 AV SW,,51.004205,-114.141171,,,0,45
382,2574,2574,NB 51 ST @ Richmond RD SW,,51.018544,-114.159624,,,0,47
383,2581,2581,EB Redstone AV @ Red Sky GR NE,,51.172864,-113.956102,,,0,28
384,2582,2582,SB Redstone BV NE @ Redstone AV NE,,51.172416,-113.951182,,,0,28
385,2592,2592,EB Masters AV SE @ Marine DR SE,,50.892125,-113.924035,,,0,33
386,2593,2593,EB Masters AV @ Master HT SE,,50.892341,-113.921755,,,0,33
387,2594,2594,EB Mahogany GD @ Mahogany CV,,50.895881,-113.931392,,,0,33
388,2595,2595,SB Mahogany BV @ Mahogany GD,,50.895663,-113.936924,,,0,34
389,2596,2596,EB Mahogany RD @ 52 ST SE (farside),,50.893665,-113.941921,,,0,33
390,2597,2597,EB Auburn Meadows DR @ 52 ST SE,,50.89371,-113.943209,,,0,33
391,2598,2598,WB 50 AV SE @ 30 St SE.,,51.008959,-113.989383,,,0,20
392,2599,2599,WB Auburn Bay AV @ Auburn Springs BV,,50.891616,-113.9474,,,0,33
393,2600,2600,EB Symons Valley PY @ 37 ST NW,,51.167777,-114.139583,,,0,31
394,2603,2603,WB Symons Valy Pkwy (128 Ave) @ Symons Valy Rd NW,,51.168194,-114.133472,,,0,29
395,2604,2604,SB 68 ST NE @ 100m Nof 37 AV NE,,51.087387,-113.935321,,,0,59
396,2605,2605,NB 52 ST SE @ 126 AV SE,,50.934388,-113.957723,,,0,68
397,2606,2606,EB Na'a DR @ Na'a PZ SW,,51.079389,-114.193833,,,0,34
398,2607,2607,WB Na'a Drive SW @ Sarcee Tr SW,,51.078572,-114.191309,,,0,32
399,2608,2608,WB Na'a Drive @ Na'a PZ SW,,51.079958,-114.19443,,,0,32
400,2609,2609,WB Na'a Drive @ Town Centre SW,,51.080806,-114.19925,,,0,32
401,2610,2610,WB Na'a Dr @ East of Piita Ri SW,,51.080611,-114.204306,,,0,32
402,2611,2611,WB Na'a Dr @ Canada Olympic Dr SW,,51.081481,-114.208524,,,0,32
403,2612,2612,WB Canada Olympic Dr @ W of Na'a Dr SW,,51.08275,-114.213001,,,0,53
404,2613,2613,EB Canada Olympic DR @ W. of Na'a DR SW,,51.082139,-114.213139,,,0,46
405,2615,2615,EB Na'a DR @ Piita RI SW,,51.080472,-114.207333,,,0,34
406,2616,2616,EB Na'a DR @ Na'a HT SW,,51.080356,-114.203626,,,0,34
407,2617,2617,EB Na'a DR @ Town Centre SW,,51.080588,-114.198464,,,0,34
408,2618,2618,EB Na'a DR @ Sarcee TR SW,,51.078316,-114.191635,,,0,34
409,2619,2619,SB Chelsea Drive @ south of Merganser Drive West,,51.035537,-113.858921,,,0,4
410,2620,2620,EB W. Lakeview DR @ E. of Chelsea DR,,51.03235,-113.855377,,,0,4
411,2621,2621,EB W. Lakeview DR @ W. of Rainbow RD,,51.03208,-113.844957,,,0,4
412,2623,2623,EB W. Creek BV @ E. of Lavender WY,,51.028634,-113.835232,,,0,4
413,2624,2624,NB W. Creek Blvd @ W. Creek Close,,51.035152,-113.83405,,,0,4
414,2625,2625,EB Merganser DR W @ W. Creek BV,,51.037715,-113.834129,,,0,4
415,2626,2626,EB Merganser DR W @ McIvor TC,,51.037779,-113.821508,,,0,4
416,2627,2627,NB W. Chestermere Drive @ Anniversary Park,,51.048836,-113.821761,,,0,4
417,2628,2628,WB Windermere Drive @ Power Line ROW,,51.050512,-113.829753,,,0,8
418,2629,2629,SB Invermere Drive @ Willowmere Close,,51.049626,-113.835255,,,0,4
419,2630,2630,SB Invermere Drive @ Springmere Drive,,51.045135,-113.8344,,,0,4
420,2631,2631,NB Redstone St NE @ Redstone Dr NE,,51.168783,-113.961884,,,0,28
421,2632,2632,NB Redstone ST @ Redstone Plaza NE,,51.171335,-113.961652,,,0,56
422,2633,2633,EB Redstone AV @ Redstone PR NE,,51.172872,-113.959088,,,0,28
423,2635,2635,EB Redstone AV @ Red Sky PS NE,,51.172848,-113.95335,,,0,28
424,2637,2637,SB Redstone BV NE @ Red Embers MR NE,,51.169813,-113.95123,,,0,28
425,2640,2640,SB Cornerstone BV @ Cornerstone AV NE,,51.160522,-113.938356,,,0,28
426,2641,2641,NB Cornerstone BV @ Cornerstone Hts NE,,51.158484,-113.937905,,,0,28
427,2642,2642,WB Cornerstone Hts NE @ Cornerstone BV NE,,51.158109,-113.938721,,,0,28
428,2643,2643,EB Cornerstone HT @ Cornerstone ST NE,,51.157946,-113.941585,,,0,28
429,2644,2644,WB Cornerstone Hts NE @ Cornerstone ST NE,,51.158145,-113.943265,,,0,28
430,2645,2645,EB Cornerstone HT @ 60 ST NE,,51.157932,-113.945867,,,0,28
431,2646,2646,EB Skyview CI @ Skyview Ranch DR NE,,51.157178,-113.95072,,,0,28
432,2647,2647,WB Skyview CI NE @ Skyview Ranch DR NE,,51.156825,-113.951635,,,0,28
433,2648,2648,NB Skyview CI NE @ Skyview Parade NE,,51.156306,-113.951808,,,0,28
434,2649,2649,SB Skyview CI NE @ Skyview Parade NE,,51.155594,-113.952561,,,0,28
435,2650,2650,WB Copperfield BV @ Copperstone RD SE,,50.912812,-113.926204,,,0,45
436,2651,2651,WB Copperfield BV @ Copperleaf PS SE,,50.911246,-113.927433,,,0,45
437,2652,2652,WB Copperfield BV @ Copperstone GV SE,,50.910417,-113.931299,,,0,45
438,2653,2653,NB 3 ST @ 7 AV SE,,51.045449,-114.055494,,,0,53
439,2654,2654,EB 16 AV NW @ Crowchild TR NW,,51.066882,-114.117471,,,0,69
440,2655,2655,WB 16 AV NW @ Crowchild TR NW,,51.067093,-114.117571,,,0,72
441,2692,2692,NB 68 ST SE @ 106 AV SE,,50.963126,-113.934618,,,0,28
442,2693,2693,EB 100 AV SE @ 68 ST SE,,50.966966,-113.934455,,,0,28
443,2694,2694,SB 74 ST SE @ 104 AV SE,,50.96461,-113.928372,,,0,28
444,2696,2696,WB Belmont BV @ Belmont ST SE,,50.870603,-114.061873,,,0,53
445,2697,2697,WB Belmont BV @ Belmont DR,,50.87068,-114.064928,,,0,53
446,2698,2698,NB Sheriff King ST @ Belmont BV,,50.870941,-114.070495,,,0,53
447,2699,2699,NB Sheriff King ST @ Yorkville AV SW,,50.874841,-114.070619,,,0,53
448,2700,2700,NB Sheriff King ST @ N of 194 AV SW,,50.878501,-114.070472,,,0,53
449,2701,2701,NB Shawville BV @ Shawville RD SE,,50.90257,-114.064984,,,0,41
450,2703,2703,WB Mahogany RD @ Mahogany BV,,50.894705,-113.937126,,,0,34
451,2704,2704,WB Mahogany RD @ 52 ST SE (nearside),,50.89412,-113.94176,,,0,34
452,2705,2705,WB Auburn Meadows DR @ Auburn Meadows VW SE,,50.894086,-113.947403,,,0,34
453,2706,2706,SB Auburn Springs BV @ Auburn Bay AV SE,,50.89096,-113.947463,,,0,34
454,2707,2707,SB Auburn Springs BV SE @ Auburn Crest WY,,50.88908,-113.948213,,,0,34
455,2708,2708,EB Mahogany RD @ Mahogany BV,,50.894497,-113.937123,,,0,33
456,2709,2709,NB Millrise BV @   Shawnessy BV,,50.913651,-114.073446,,,0,47
457,2710,2710,NB Millrise BV @  Millrise DR,,50.915951,-114.073747,,,0,47
458,2711,2711,NB Legacy GA SE @ Legacy Main ST SE,,50.861318,-114.017116,,,0,43
459,2712,2712,WB  210 AV SE @ Legacy GA SE,,50.863315,-114.017976,,,0,43
460,2713,2713,SB Wolf Willow  Blvd SE @ 194 AV SE,,50.877127,-114.004149,,,0,28
461,2714,2714,WB  210 AV SE @  Walgrove DR SE,,50.863414,-114.022626,,,0,86
462,2715,2715,WB 194 AV SE @ Wolf Creek Dr. SE,,50.877901,-114.009622,,,0,28
463,2716,2716,EB Mahogany GD @ Mahogany BV  SE,,50.895919,-113.935983,,,0,33
464,2717,2717,SB Seton WY SE @ Superstore (S of Seton CR),,50.873522,-113.957419,,,0,34
465,2718,2718,SB Seton WY SE @ Seton AV SE,,50.870328,-113.955467,,,0,34
466,2719,2719,SB Seton WY @ Seton CI SE,,50.867193,-113.952931,,,0,34
467,2720,2720,SB Seton WY @ Seton GV SE,,50.865803,-113.952026,,,0,34
468,2721,2721,WB Wolf Creek Ave SE @ Wolf Crk Gdns SE,,50.875176,-114.006766,,,0,28
469,2725,2725,EB Auburn Meadows DR @ Auburn Meadows BV nearside,,50.893699,-113.948025,,,0,33
470,2728,2728,Saddletowne LRT Station SB,,51.125532,-113.948039,,,0,94
471,2729,2729,NB Seton WY @ 202 AV SE,,50.866736,-113.951909,,,0,33
472,2730,2730,NB Seton WY @ Union AV SE,,50.869316,-113.953995,,,0,33
473,2731,2731,EB Auburn Springs BV @Auburn Bay ST,,50.886756,-113.950374,,,0,33
474,2732,2732,NB Auburn Springs BV @ Auburn Crest WY SE,,50.88953,-113.947458,,,0,33
475,2733,2733,SB Marine DR @ Mahogany RD (nearside),,50.895192,-113.929269,,,0,33
476,2734,2734,NB Marine DR @ Mahogany RD,,50.895185,-113.929096,,,0,34
477,2738,2738,WB Auburn Bay DR SE @ 52 ST SE,,50.899692,-113.946034,,,0,43
478,2788,2788,SB East Hills SQ @ East Hills BV SE,,51.040816,-113.911119,,,0,122
479,2793,2793,Foothills Medical Centre (EB),,51.068357,-114.128111,,,0,186
480,2794,2794,Foothills Medical Centre (WB),,51.068615,-114.130151,,,0,123
481,2795,2795,19th Street NE Station (EB),,51.066799,-114.012449,,,0,60
482,2796,2796,Rundleside Drive Station (EB),,51.081378,-113.969364,,,0,60
483,2797,2797,Saddletowne Circle Station (NB),,51.120846,-113.946553,,,0,141
484,2798,2798,Castleridge Boulevard Station (SB),,51.099141,-113.958595,,,0,207
485,2799,2799,32nd Avenue NE Station (SB),,51.082194,-113.958624,,,0,136
486,2800,2800,31st Street NW Station (WB),,51.081884,-114.129984,,,0,60
487,2801,2801,Rundleside Drive Station (WB),,51.081609,-113.970204,,,0,63
488,2802,2802,19th Street NE Station (WB),,51.067102,-114.01445,,,0,63
489,2803,2803,North Hill Station (WB),,51.067083,-114.100885,,,0,97
490,2804,2804,NB 39 ST NW @ University AV,,51.078742,-114.144682,,,0,60
491,2805,2805,EB 94 AV SE @ 54 ST SE,,50.968565,-113.954822,,,0,29
492,2806,2806,SB 74 ST SE @ 106 AV SE,,50.962162,-113.928169,,,0,28
493,2807,2807,SB 74 ST SE @ N. of 107 AV SE,,50.960262,-113.926748,,,0,28
494,2808,2808,WB 107 AV SE @ 74 ST SE,,50.958889,-113.929899,,,0,28
495,2809,2809,NB 68 ST SE @ 107 AV SE,,50.960109,-113.934964,,,0,28
496,2810,2810,WB 106 AV SE @ N Dufferin Industrial,,50.963266,-113.9402,,,0,28
497,2811,2811,WB 94 AV SE @ 54 ST SE,,50.968792,-113.954467,,,0,28
498,2812,2812,NB 52 ST SE @ 90 AV SE,,50.972774,-113.958207,,,0,96
499,2813,2813,WB 90 AV SE @ W. of 60 ST SE,,50.972508,-113.950779,,,0,28
500,2814,2814,WB 90 AV SE @ 38 ST SE,,50.972393,-113.978422,,,0,28
501,2815,2815,EB 76 AV SE @ 40 ST SE,,50.984999,-113.977077,,,0,40
502,2816,2816,EB 61 AV SE @ 44 ST SE,,50.99888,-113.969612,,,0,40
503,2817,2817,EB 61 AV SE @ 48 ST SE,,50.99886,-113.963731,,,0,40
504,2818,2818,68 AV SE @ 55 ST SE eb,,50.994078,-113.951257,,,0,82
505,2819,2819,SB 57 ST SE @ 68 AV SE,,50.993757,-113.946991,,,0,42
506,2820,2820,EB 72 AV SE @ 64 ST SE,,50.989351,-113.939482,,,0,42
507,2821,2821,SB 68 ST SE @ 72 AV SE,,50.989123,-113.935427,,,0,42
508,2822,2822,WB 76 AV SE @ 68 ST SE,,50.985204,-113.93573,,,0,42
509,2823,2823,WB 76 AV SE @ 62 ST SE,,50.985231,-113.941387,,,0,42
510,2824,2824,WB 76 AV SE @ 57 ST SE,,50.985214,-113.947209,,,0,42
511,2825,2825,WB 76 AV SE @ 56 ST SE,,50.98526,-113.952582,,,0,42
512,2826,2826,WB 61 AV SE @ 52 ST SE,,50.999189,-113.959704,,,0,42
513,2827,2827,WB 61 AV SE @ 48 ST SE,,50.999106,-113.963023,,,0,42
514,2828,2828,WB 76 AV SE @ 44 ST SE,,50.98527,-113.970581,,,0,42
515,2829,2829,WB 76 AV SE @ 40 ST SE,,50.985312,-113.976178,,,0,42
516,2831,2831,EB 106 AV SE @ 48 ST SE,,50.957808,-113.965004,,,0,22
517,2832,2832,NB 52 ST SE @ 114 AV SE,,50.951357,-113.957984,,,0,90
518,2833,2833,WB 106 AV SE @ 48 ST SE,,50.958039,-113.96572,,,0,22
519,2834,2834,WB 116 AV SE @ 42 ST SE,,50.947213,-113.975375,,,0,22
520,2835,2835,EB Radcliffe DR @ 28 ST SE,,51.046749,-113.989114,,,0,37
521,2836,2836,EB Radcliffe DR @ Radcliffe CR (E.Leg) SE,,51.048031,-113.983949,,,0,37
522,2837,2837,WB Radcliffe DR @ 36 ST SE,,51.04823,-113.982636,,,0,37
523,2838,2838,WB Radcliffe DR @ Radcliffe CR (E.Leg) SE,,51.048268,-113.984369,,,0,37
524,2839,2839,WB Radcliffe DR @ 28 ST SE,,51.046946,-113.98908,,,0,37
525,2840,2840,SB 28 ST SE @ 34 AV SE,,51.022913,-113.991664,,,0,36
526,2841,2841,SB 28 ST SE @ Doverthorn RD,,51.020223,-113.991631,,,0,36
527,2842,2842,Franklin LRT Station S Lot (EB Radcliffe Dr SE),,51.046501,-113.994692,,,0,73
528,2843,2843,NB 52 ST SE @  Prestwick AV,,50.922375,-113.957955,,,0,68
529,2844,2844,NB 52 ST SE @ Erin Woods DR (S. Leg),,51.019377,-113.958105,,,0,68
530,2845,2845,SB 52 ST SE @ 86 AV SE,,50.974976,-113.958844,,,0,73
531,2846,2846,SB 52 ST SE @ 110 AV SE,,50.95342,-113.958814,,,0,73
532,2847,2847,SB 52 ST SE @ 114 AV SE,,50.949948,-113.958458,,,0,73
533,2848,2848,SB 52 ST SE @ 126 AV SE,,50.9337,-113.958388,,,0,73
534,2849,2849,SB 52 ST SE @ Prestwick AV,,50.921901,-113.958483,,,0,73
535,2850,2850,EB 8 AV SE @ Pensdale RD,,51.045036,-113.954363,,,0,57
536,2851,2851,WB Abbeydale DR @ 68 ST NE,,51.059708,-113.934522,,,0,57
537,2852,2852,NB Madigan DR @ 8 AV NE,,51.059881,-113.940314,,,0,57
538,2853,2853,NB 68 ST E @ Memorial DR,,51.05281,-113.934877,,,0,86
539,2854,2854,EB 64 AV NE @ Falton DR NE,,51.110461,-113.940256,,,0,12
540,2855,2855,SB 68 ST NE @ 64 AV NE,,51.110117,-113.935324,,,0,12
541,2856,2856,NB 68 ST SE @ Applewood DR (S. Leg) SE,,51.042877,-113.934884,,,0,38
542,2857,2857,WB 17 AV SE @ 50 ST SE,,51.037951,-113.961084,,,0,39
543,2858,2858,WB 17 AV SE @ 41 ST SE,,51.037982,-113.974113,,,0,51
544,2859,2859,WB 17 AV SE @ 40 St SE,,51.037977,-113.976259,,,0,51
545,2860,2860,NB 14 ST NE @ COUNTRY HILLS BV,,51.155034,-114.027838,,,0,82
546,2861,2861,EB Southland DR @ Acadia DR SE,,50.963909,-114.048274,,,0,20
547,2862,2862,EB Southland DR @ Maplecreek DR SE,,50.964328,-114.042441,,,0,20
548,2863,2863,EB Heritage DR @ 11 ST SE,,50.986938,-114.038505,,,0,49
549,2864,2864,WB Heritage DR @ Heritage GA SE,,50.987284,-114.044359,,,0,48
550,2865,2865,SB Heritage DR @ 77 AV SE,,50.984249,-114.048629,,,0,48
551,2866,2866,WB Southland DR @ Maplecreek DR SE,,50.964549,-114.042907,,,0,20
552,2867,2867,WB Palliser DR @ Oakfield DR SW,,50.971174,-114.131442,,,0,15
553,2868,2868,EB Palliser DR @ Oakwood DR SW,,50.972275,-114.133407,,,0,39
554,2869,2869,SB 4A ST @ 67 AV SW,,50.993037,-114.074274,,,0,26
555,2870,2870,SB 4A ST @ 69 AV SW,,50.991268,-114.074191,,,0,26
556,2871,2871,SB 4A ST @ Kingsmere CR SW,,50.989446,-114.074246,,,0,26
557,2872,2872,SB Macleod TR frontage road @ S. of 73 AV SW,,50.987629,-114.072007,,,0,26
558,2873,2873,WB 75 AV @ 4A ST SW,,50.986144,-114.074513,,,0,26
559,2874,2874,EB 75 AV @ 4A ST SW,,50.985851,-114.074891,,,0,26
560,2875,2875,WB 73 AV @ Macleod TR SE,,50.987983,-114.072294,,,0,26
561,2876,2876,NB 4A ST @ 71 AV SW,,50.989802,-114.073813,,,0,26
562,2877,2877,NB 4A ST @ 69 AV SW,,50.991613,-114.073716,,,0,26
563,2878,2878,NB 4A ST @ 67 AV SW,,50.993411,-114.073757,,,0,26
564,2879,2879,WB Southland DR @ Oakmoor WY SW,,50.961532,-114.124832,,,0,32
565,2880,2880,EB Southland DR @ Oakfield DR SW,,50.961133,-114.131708,,,0,37
566,2881,2881,EB Southland DR @ Oakmoor WY SW,,50.9611,-114.125343,,,0,37
567,2882,2882,NB 24 ST @ 98 AV SW,,50.965341,-114.117829,,,0,32
568,2883,2883,NB 24 ST @ Palistone RD SW,,50.967045,-114.117818,,,0,32
569,2884,2884,NB 24 ST @ Palliser DR SW,,50.969105,-114.117667,,,0,32
570,2885,2885,SB 24 ST @ 90 AV SW,,50.971523,-114.118197,,,0,34
571,2886,2886,SB 24 ST @ Palliser DR SW,,50.969759,-114.118167,,,0,34
572,2887,2887,SB 24 ST @ Palistone RD SW,,50.967218,-114.118143,,,0,34
573,2888,2888,EB Heritage DR @ Ashworth RD SE,,50.979632,-114.053952,,,0,29
574,2889,2889,WB Heritage DR @ Fraser RD SE,,50.979828,-114.054018,,,0,28
575,2890,2890,WB Heritage DR @ Glendeer CI SE,,50.987199,-114.035826,,,0,28
576,2891,2891,Canyon Meadows LRT Station NB,,50.936855,-114.067451,,,0,44
577,2893,2893,WB 80 AV NE @ E. of Metis Tr,,51.12542,-113.967639,,,0,111
578,2894,2894,EB 72 AV SE @ 57 ST SE,,50.989378,-113.946119,,,0,42
579,2895,2895,SB 56 ST SE @ 114 AV SE  ( Nearside ),,50.951011,-113.951989,,,0,22
580,2898,2898,North Pointe Terminal H,,51.157927,-114.068767,,,0,161
581,2899,2899,North Pointe Terminal G,,51.15777,-114.068289,,,0,100
582,2902,2902,EB 6 AV SE @ 3 ST SE,,51.047041,-114.054029,,,0,23
583,2903,2903,EB 6 AV SE @ 5 ST SE,,51.046922,-114.050309,,,0,23
584,2904,2904,WB Front ST @ Main Ent. South Health Campus SE,,50.881417,-113.949477,,,0,238
585,2905,2905,EB University AV @ Smith ST NW,,51.077056,-114.148833,,,0,100
586,2906,2906,NB Shaganappi Tr @ University Ave,,51.077306,-114.151944,,,0,42
587,2907,2907,EB University AV @ Shaganappi TR NW,,51.076667,-114.151194,,,0,40
588,2908,2908,EB 144 Av NW @ Carrington Bv west leg,,51.184083,-114.089861,,,0,41
589,2909,2909,EB 144 AV @ Carringvue DR NW,,51.18328,-114.079317,,,0,41
590,2910,2910,EB 144 Av NW @ Carrington Bv east leg,,51.183306,-114.075332,,,0,41
591,2911,2911,WB 144 Av NW @ Lucas Bv,,51.183508,-114.076469,,,0,41
592,2912,2912,SB 1 St NE @ 144 Av NE,,51.182842,-114.069437,,,0,41
593,2913,2913,WB 144 Av NE @ 1 St NE,,51.183471,-114.069703,,,0,41
594,2914,2914,EB 162 AV SE @ Shawville WY SW,,50.903369,-114.06829,,,0,42
595,2915,2915,EB 140 AV @ 14 ST NW,,51.18128,-114.093749,,,0,41
596,2916,2916,NB Carrington BV @ 140 AV NW,,51.182062,-114.089934,,,0,41
597,2917,2917,SB Carrington BV @ 144 AV NW,,51.183844,-114.090384,,,0,41
598,2918,2918,WB 140 AV NW @ Carrington BV,,51.181701,-114.090959,,,0,41
599,2919,2919,WB 144 Av @ Lucas Way NW,,51.183545,-114.080239,,,0,41
600,2924,2924,SB 50 ST SW @ 46 AV SW,,51.012131,-114.159845,,,0,40
601,2925,2925,SB 50 ST SW @ 50 AV SW,,51.009546,-114.159932,,,0,40
602,2926,2926,EB 50 AV SW @ W. of 45 ST SW,,51.00912,-114.155977,,,0,40
603,2927,2927,NB 45 ST SW @ 49 AV SW,,51.009793,-114.152702,,,0,40
604,2928,2928,SB 45 ST SW @ 46 AV SW,,51.012154,-114.152926,,,0,39
605,2929,2929,WB 50 AV SW @ 45 ST SW,,51.009335,-114.153374,,,0,39
606,2930,2930,WB 50 AV SW @ W. of 45 ST SW,,51.009325,-114.156879,,,0,39
607,2931,2931,NB 50 ST SW @ 50 AV SW,,51.009759,-114.159694,,,0,39
608,2932,2932,SB West Creek DR @ Lavender Link,,51.028783,-113.840709,,,0,4
609,2933,2933,EB Hospital DR @ Health Science CE NW,,51.066437,-114.131876,,,0,272
610,2934,2934,WB 34 AV NW @ 69 ST NW,,51.083943,-114.188458,,,0,30
611,2935,2935,SB 69 ST NW @ 34 AV NW,,51.083373,-114.188212,,,0,29
612,2936,2936,WB Bowfort RD @ 83 ST NW,,51.086055,-114.213663,,,0,34
613,2937,2937,NB Greenbriar WY @ Greenbriar PL NW,,51.088203,-114.217763,,,0,34
614,2938,2938,SB Greenbriar WY @ Grenbriar PL NW,,51.087577,-114.218022,,,0,34
615,2939,2939,EB Bowfort RD @ 83 ST NW,,51.085864,-114.213559,,,0,34
616,2940,2940,EB 5 AV SW @ 1 ST SW mid-block,,51.048313,-114.06391,,,0,261
617,3366,3366,SB 85 ST @ Bow TR SW,,51.051549,-114.21115,,,0,74
618,3367,3367,NB 85 ST @ Bow TR SW,,51.052366,-114.210822,,,0,73
619,3368,3368,Rockyview Hospital (SB),,50.987727,-114.096101,,,0,143
620,3370,3370,Rockyview Hospital (NB),,50.987773,-114.095972,,,0,142
621,3371,3371,Heritage Park (SB),,50.980165,-114.095826,,,0,143
622,3372,3372,Heritage Park (NB),,50.980088,-114.095473,,,0,142
623,3373,3373,SB 14 ST @ 33 AV SW,,51.023745,-114.094844,,,0,39
624,3374,3374,NB 14 ST @ 36 AV SW,,51.022045,-114.094488,,,0,40
625,3375,3375,EB Council WY @ 11 ST SW,,51.024337,-114.088841,,,0,40
626,3376,3376,NB 14 ST @ Council WY SW,,51.023829,-114.094568,,,0,40
627,3377,3377,SB Carleton ST @ Council WY SW,,51.02428,-114.090614,,,0,39
628,3378,3378,EB Richardson WY @ Bishop WY SW,,51.014192,-114.12801,,,0,40
629,3379,3379,EB 33 AV @ 22 ST SW,,51.023906,-114.113928,,,0,40
630,3380,3380,Woodpark Station (NB),,50.93659,-114.117469,,,0,109
631,3381,3381,90 Avenue SW (NB),,50.973337,-114.095531,,,0,55
632,3382,3382,Marda Loop Station (NB),,51.024942,-114.117422,,,0,146
633,3383,3383,90 Avenue SW (SB),,50.973361,-114.095646,,,0,54
634,3384,3384,Woodview Station (SB),,50.940382,-114.118201,,,0,54
635,3386,3386,WB Hidden Valley DR @ W. Leg Hidden Ranch TC NW,,51.150181,-114.125637,,,0,56
636,3387,3387,26th Street SE Station (EB),,51.037433,-113.993998,,,0,107
637,3388,3388,9th Avenue SE Station (WB),,51.036698,-114.021302,,,0,109
638,3389,3389,WB 9 AV @ 6 ST SE,,51.044224,-114.048786,,,0,161
639,3390,3390,26th Street SE Station (WB),,51.037544,-113.994034,,,0,109
640,3391,3391,9th Avenue SE Station (EB),,51.03661,-114.021218,,,0,107
641,3392,3392,SB 1 ST SW @ 7th AV SW,,51.046662,-114.06546,,,0,161
642,3393,3393,NB 24 ST @ 107 AV SE,,50.956873,-114.001065,,,0,52
643,3394,3394,NB 45 ST SW @ 8 AV SW,,51.044862,-114.152582,,,0,37
644,3396,3396,NB Centre ST N @ 28 AV N,,51.078201,-114.062411,,,0,134
645,3397,3397,NB Centre ST N @ 28 AV N,,51.078148,-114.062418,,,0,16
646,3398,3398,SB Centre ST N @ 28 AV N,,51.077545,-114.062648,,,0,137
647,3399,3399,SB Centre ST N @ 28 AV N,,51.077487,-114.062658,,,0,15
648,3401,3401,EB Aspen Hills DR N. of Aspen Stone BV SW,,51.040666,-114.217879,,,0,74
649,3402,3402,SB Cortina DR @ Tremblant WY SW,,51.036438,-114.222798,,,0,37
650,3405,3405,Somerset Bridlewood Terminal,,50.898403,-114.069724,,,0,194
651,3406,3406,NB West Campus BV NW @ S. of 24 AV NW,,51.072003,-114.147125,,,0,60
652,3407,3407,SB University BV NW @ 24 AV NW,,51.071529,-114.147038,,,0,87
653,3411,3411,EB Canterbury DR @ Canyon Meadows DR SW,,50.936862,-114.080037,,,0,58
654,3412,3412,WB Canyon Meadows Dr.@ Canterbury Dr SW,,50.937179,-114.080727,,,0,57
655,3413,3413,SB 6 Street SW @ Canterbury Dr SW,,50.93756,-114.076229,,,0,58
656,3414,3414,SB 6 ST SW @ 130 AV SW,,50.935668,-114.075945,,,0,58
657,3415,3415,SB 6 ST SW @ Canyon Meadows DR SW,,50.934143,-114.076409,,,0,115
658,3417,3417,SB Mahogany BV @Marquis Cres SE,,50.900607,-113.910437,,,0,42
659,3418,3418,SB Mahogany BV @ Marquis VW SE,,50.897799,-113.911405,,,0,42
660,3419,3419,SB Mahogany BV @ Masters SQ SE,,50.895464,-113.91205,,,0,85
661,3420,3420,NB Mahogany BV @ Masters CR  SE (s. leg),,50.896125,-113.911758,,,0,43
662,3421,3421,NB Mahogany BV @ Masters CR  SE (n. leg),,50.898817,-113.91038,,,0,43
663,3422,3422,NB 36 ST @ Whitehorn DR NE,,51.085377,-113.98149,,,0,178
664,3423,3423,NB Mahogany BV @ Masters RO  SE,,50.892895,-113.911639,,,0,43
665,3428,3428,WB Masters RD @ Magnolia LI,,50.892384,-113.916803,,,0,34
666,3429,3429,WB Mahogany GD @ Mahogany CV,,50.896122,-113.931771,,,0,34
667,3430,3430,WB Auburn Meadows DR @ Auburn Meadows ST SE,,50.894061,-113.943757,,,0,34
668,3431,3431,WB Masters AV @ Masters VI,,50.892626,-113.921265,,,0,34
669,3433,3433,EB Auburn Bay AV SE @ Auburn Meadows BV SE,,50.892149,-113.948938,,,0,34
670,3434,3434,WB Cranston AV @ Cranston RD SE,,50.879951,-113.979481,,,0,33
671,3435,3435,SB Cranston AV @ Cranbrook HT SE,,50.870198,-113.983258,,,0,33
672,3436,3436,SB Cranston AV @ Cranbrook LN SE,,50.867861,-113.982463,,,0,33
673,3437,3437,SB Cranston AV @ Cranbrook CV SE,,50.866247,-113.979224,,,0,33
674,3438,3438,EB Cranston AV @ Cranarch CR SE,,50.86396,-113.976157,,,0,33
675,3439,3439,EB Cranston AV @ Cranbrook GD SE,,50.862748,-113.972004,,,0,33
676,3440,3440,NB Cranston AV @ Cranarch CR SE,,50.86674,-113.97059,,,0,33
677,3441,3441,NB @ Rocky Ridge Recreation Centre,,51.157697,-114.23221,,,0,29
678,3442,3442,EB 112 AV NW @ Rocky Ridge Recreation Centre,,51.154042,-114.228193,,,0,31
679,3443,3443,EB Symons Valley PY @ Sherwood DR NW,,51.167876,-114.159637,,,0,31
680,3444,3444,EB Symons Valley PY @ Nolan Hill RI NW,,51.167872,-114.155213,,,0,31
681,3445,3445,EB Symons Valley PY @ W. Leg of Evanston VW NW,,51.16798,-114.120127,,,0,31
682,3446,3446,EB Evanston WY @ Symons Valley PY (South Leg)  NW,,51.173249,-114.107511,,,0,72
683,3447,3447,NB Evanston WY @ Evansdale WY  NW,,51.173727,-114.10512,,,0,72
684,3448,3448,NB Evanston WY @ Evansglen  LD NW,,51.175326,-114.102694,,,0,72
685,3449,3449,NB Evanston WY @ Evansglen  DR  NW,,51.176935,-114.100025,,,0,72
686,3450,3450,NB 11 ST SW @ 8 AV SW,,51.046584,-114.088518,,,0,38
687,3451,3451,SB @ Rocky Ridge Recreation Centre,,51.157331,-114.232531,,,0,69
688,3452,3452,NB Evanston WY @ Evansglen LN  NW,,51.178878,-114.099216,,,0,72
689,3453,3453,WB Symons Valley PY @ Evanston LI NW,,51.180542,-114.10174,,,0,72
690,3454,3454,WB Symons Valley PY @ Evanston VW (East Leg)  NW,,51.168357,-114.114604,,,0,29
691,3455,3455,WB Symons Valley PY @ Evanston VW (West Leg)  NW,,51.168238,-114.12218,,,0,29
692,3456,3456,NB Symons Valley RD @ Symons Valley PY NW,,51.168501,-114.132064,,,0,42
693,3457,3457,WB Symons Valley PY (128 Av NW) @ Shaganappi TR NW,,51.168137,-114.152325,,,0,29
694,3458,3458,WB Symons Valley PY (128 Av NW) @ Nolan Hill RI NW,,51.168226,-114.157051,,,0,29
695,3459,3459,WB 112 AV NW @ Sherwood DR NW,,51.160285,-114.160466,,,0,29
696,3461,3461,SB Harvest Hills BV @ Panatella GA NW,,51.166578,-114.068951,,,0,79
697,3462,3462,NB Harvest Hills BV @ Panatella GA NW,,51.167003,-114.067861,,,0,41
698,3463,3463,NB Citadel WY @ N. of Country Hills BV NW,,51.143375,-114.195257,,,0,39
699,3464,3464,SB Sage Hill GD @ Sage Hill DR,,51.171135,-114.138237,,,0,42
700,3465,3465,WB Masters AV @ Marine DR,,50.892856,-113.926053,,,0,34
701,3470,3470,Tuscany Station - Rocky Ridge Terminal,,51.134848,-114.234528,,,0,60
702,3471,3471,NB Sherwood BV @ 300 Sherwood PL NW,,51.159859,-114.154122,,,0,37
703,3472,3472,EB 40 AV NW @ 42 ST NW,,51.088201,-114.150076,,,0,34
704,3473,3473,EB Ranchview DR @ Ranchlands BV NW,,51.120028,-114.17945,,,0,36
705,3474,3474,WB Mission Rd @ Macleod TR SW,,51.021752,-114.061341,,,0,15
706,3475,3475,WB Mission Rd @ 34 AV SW,,51.022899,-114.065122,,,0,15
707,3476,3476,WB 34 AV SW @ 2 ST SW,,51.023279,-114.0688,,,0,15
708,3479,3479,WB 2 AV @ 9 ST NW,,51.054826,-114.083664,,,0,36
709,3480,3480,EB 20 AV @ 12 ST NW,,51.070475,-114.08934,,,0,14
710,3481,3481,SB 19 ST @ Collingwood DR NW,,51.07991,-114.10655,,,0,34
711,3482,3482,NB 19 ST NW @ Collingwood DR,,51.080718,-114.10721,,,0,34
712,3483,3483,EB Silver Springs BV @ Nose Hill DR NW,,51.115725,-114.206158,,,0,28
713,3484,3484,SB Scenic Acres DR @ Scenic Acres BV NW,,51.118889,-114.211108,,,0,38
714,3485,3485,SB Scenic Acres DR @ Scenic Glen CR NW,,51.115922,-114.211172,,,0,38
715,3486,3486,WB 8 AV SE @ 58 ST SE,,51.045242,-113.950406,,,0,61
716,3488,3488,Shawnessy Station,,50.910603,-114.070042,,,0,119
717,3491,3491,EB Sage Hill DR @ W. of Symons Valley RD NW,,51.169623,-114.133572,,,0,39
718,3492,3492,WB Sage Hill Dr @ Symons Valley Rd NW,,51.169786,-114.133923,,,0,42
719,3493,3493,WB Sage Hill Ga @ 37 St NW,,51.170974,-114.142365,,,0,171
720,3494,3494,EB Sage Hill GA @  W. of 37 St NW,,51.170712,-114.142503,,,0,141
721,3495,3495,Alberta Children's Hospital Station (SB),,51.075327,-114.145894,,,0,156
722,3496,3496,North Pointe Terminal E,,51.156761,-114.069188,,,0,115
723,3497,3497,North Pointe Terminal C,,51.156824,-114.068671,,,0,79
724,3498,3498,North Pointe Terminal B,,51.156853,-114.068435,,,0,116
725,3501,3501,EB Seton BV @ Auburn Bay LI SE,,50.882858,-113.95434,,,0,116
726,3502,3502,SB 52 ST SE @ Auburn Bay DR,,50.898899,-113.944393,,,0,49
727,3504,3504,SB 52 ST SE @ Auburn Meadows DR,,50.893087,-113.942789,,,0,49
728,3505,3505,NB 52 ST SE @ Mahogany RD,,50.894727,-113.942488,,,0,116
729,3506,3506,SB 52 ST SE @ McKenzie Terminal,,50.915478,-113.956995,,,0,49
730,3507,3507,NB 52 ST SE @ McKenzie Terminal,,50.915438,-113.957076,,,0,116
731,3508,3508,SB Ogden RD @ 50 AV SE,,51.008223,-114.011446,,,0,49
732,3509,3509,NB Ogden RD @ 50 AV SE,,51.006788,-114.011473,,,0,48
733,3511,3511,EB Copperpond BV @ McIvor BV SE,,50.923031,-113.932345,,,0,86
734,3513,3513,EB Copperpond BV @ Copperpond RD SE,,50.924,-113.929833,,,0,45
735,3515,3515,EB Copperpond BV @ Copperpond GA SE,,50.924599,-113.924015,,,0,45
736,3517,3517,SB Copperpond BV @ Copperpond PA SE,,50.921174,-113.920175,,,0,45
737,3519,3519,SB Copperpond BV @ Copperpond LN SE,,50.917969,-113.91857,,,0,45
738,3521,3521,WB Copperstone DR @ Copperpond BV SE,,50.915766,-113.918148,,,0,45
739,3523,3523,SB Copperpond BV @ CopperpondCV SE,,50.922607,-113.92067,,,0,45
740,3524,3524,NB McIvor BV @ Copperfield BV SE,,50.919577,-113.931959,,,0,44
741,3525,3525,WB Quarry Park BV @ Quarry DR SE,,50.959573,-114.010136,,,0,41
742,3526,3526,WB Quarry Park BV @ Quarry LI SE,,50.959531,-114.013682,,,0,41
743,3528,3528,NB University BV NW @ Pathway,,51.069407,-114.145393,,,0,60
744,3529,3529,SB University BV @ Pathway NW,,51.068896,-114.145117,,,0,87
745,3531,3531,Quarry Park Station (SB),,50.96286,-114.012049,,,0,44
746,3532,3532,WB 9 AV SW @ 85 ST SW,,51.059793,-114.210224,,,0,36
747,3533,3533,NB Rocky Ridge RD @ Royal Oak DR NW,,51.139012,-114.23402,,,0,107
748,3534,3534,NB Rocky Ridge RD @ S. of Royal Elm RD NW,,51.14144,-114.234038,,,0,107
749,3536,3536,WB Royal Oak DR NW @ Royal Elm DR NW,,51.138833,-114.231333,,,0,39
750,3537,3537,WB Royal Oak DR NW @ Royal TC NW,,51.138359,-114.22518,,,0,39
751,3538,3538,SB Royal Oak DR  @ Royal Ridge RI NW,,51.13933,-114.220935,,,0,39
752,3539,3539,SB Royal Oak DR @ Royal Ridge  HL NW,,51.14023,-114.219304,,,0,39
753,3540,3540,SB Royal Oak DR @ Royal Crest WY NW,,51.141397,-114.216437,,,0,39
754,3541,3541,SB Royal Oak DR @ Royal Birch GA NW,,51.143277,-114.215401,,,0,39
755,3542,3542,SB Royal Oak DR @ 100 Royal Birch ME NW,,51.145997,-114.215209,,,0,39
756,3543,3543,SB Royal Oak DR @ Royal Birch BV NW,,51.147598,-114.217183,,,0,39
757,3544,3544,EB 112 AV NW @ Country Hills BV,,51.150143,-114.212311,,,0,31
758,3548,3548,EB 112 AV NW @ Royal Vista DR NW,,51.154054,-114.200364,,,0,31
759,3549,3549,WB 112 AV NW @ Royal Vista LI NW,,51.153996,-114.206133,,,0,29
760,3550,3550,WB 112 AV NW @ 85 ST NW,,51.15187,-114.209914,,,0,29
761,3552,3552,NB 24 ST SE @ Quarry Park BV,,50.964,-114.001393,,,0,48
762,3553,3553,SB 24 ST SE @ Quarry PK BV,,50.962645,-114.001842,,,0,1
763,3554,3554,EB 112 AV NW @ 85 ST NW,,51.152344,-114.208557,,,0,31
764,3555,3555,EB 112 AV NW @ Royal Vista LI NW,,51.153881,-114.204704,,,0,31
765,3556,3556,EB 112 AV NW @ 76 ST NW,,51.154089,-114.19568,,,0,31
766,3557,3557,EB 112 AV NW @ 110 AV NW,,51.154105,-114.190068,,,0,31
767,3560,3560,EB Hospital DR @ TRW Building,,51.065888,-114.137073,,,0,87
768,3561,3561,WB Old Banff Coach RD @ West Springs GA SW,,51.065784,-114.189182,,,0,36
769,3565,3565,NB 24 ST SE @ 114 AV SE,,50.952705,-114.001291,,,0,102
770,3566,3566,EB Chaparral Valley SQ @ Chaparral Valley LI SE,,50.886833,-114.015157,,,0,56
771,3567,3567,SB Chaparral Valley DR @ Chaparral Valley VW SE,,50.88535,-114.015431,,,0,28
772,3568,3568,SB Chaparral Valley DR @ Chaparral Valley TC SE,,50.883571,-114.015536,,,0,28
773,3569,3569,SB Chaparral Valley DR @ Chaparral Valley GD SE,,50.879299,-114.013469,,,0,28
774,3570,3570,SB Walden BV @ N. leg Walden DR SE midblk,,50.874793,-114.027814,,,0,28
775,3571,3571,WB Walden DR @ Walden SQ SE,,50.874594,-114.031703,,,0,28
776,3572,3572,SB Walden GA @ 194 AV SE,,50.876113,-114.036362,,,0,71
777,3573,3573,EB Walden DR @ Walden SQ SE,,50.87419,-114.030764,,,0,28
778,3574,3574,NB Walden BV @ nleg Walden Dr SE midblk,,50.875136,-114.026076,,,0,28
779,3575,3575,NB Chaparral Valley DR @ Chaparral Valley GD SE,,50.880302,-114.013546,,,0,28
780,3576,3576,NB Chaparral Valley DR @ Chaparral Valley GV SE,,50.884181,-114.015147,,,0,28
781,3577,3577,SB 6 ST SE @ Shawville GA,,50.897261,-114.072163,,,0,53
782,3585,3585,SB 52 ST SE @ Auburn Bay AV,,50.890581,-113.942727,,,0,73
783,3586,3586,SB 52 ST SE @ Auburn Meadows DR,,50.893084,-113.942785,,,0,73
784,3587,3587,SB 52 ST SE @ Auburn Meadows AV SE,,50.89766,-113.943874,,,0,73
785,3588,3588,SB 52 ST SE @ Auburn Bay DR,,50.898895,-113.944386,,,0,73
786,3589,3589,WB Mahogany BV @ Mahogany HT SE,,50.902545,-113.933563,,,0,43
787,3590,3590,WB Mahogany BV @ Mahogany WY SE,,50.902355,-113.926255,,,0,43
788,3591,3591,WB Mahogany BV @ Marquis GD SE,,50.903718,-113.919182,,,0,43
789,3592,3592,WB Mahogany BV @ Marquis GR SE,,50.903209,-113.914462,,,0,43
790,3593,3593,NB Mahogany BV @ 300 Marquis CO SE,,50.901271,-113.910491,,,0,43
791,3594,3594,EB Cranford DR @ Cranston GA SE,,50.870327,-113.970769,,,0,34
792,3595,3595,EB Cranford DR @ Cranford PA SE,,50.871506,-113.966678,,,0,34
793,3596,3596,NB Cranford DR @ Cranford CL SE,,50.873458,-113.966957,,,0,34
794,3597,3597,NB Cranford DR @ Cranford CR SE,,50.876034,-113.96807,,,0,34
795,3598,3598,WB Cranford DR @ Cranford ST SE,,50.877415,-113.970788,,,0,34
796,3599,3599,NB 52 ST SE @ Mahogany DR,,50.891353,-113.942253,,,0,68
797,3600,3600,NB 52 ST SE @ Mahogany DR,,50.892763,-113.942166,,,0,68
798,3601,3601,NB 52 ST SE @ Mahogany ST,,50.897148,-113.942968,,,0,68
799,3602,3602,NB 52 ST SE @ Mahogany GA,,50.898559,-113.943583,,,0,116
800,3603,3603,EB Mahogany GA @ Mahogany PZ SE,,50.899382,-113.941363,,,0,42
801,3604,3604,NB Mahogany BV @ Mahogany GA SE,,50.899825,-113.936861,,,0,42
802,3605,3605,EB Mahogany BV @ Mahogany HT SE,,50.90243,-113.932733,,,0,42
803,3606,3606,EB Mahogany BV @ Marine DR SE,,50.901934,-113.924046,,,0,42
804,3607,3607,EB Mahogany BV @ Marquis GD SE,,50.903608,-113.917961,,,0,42
805,3608,3608,EB Mahogany BV @ Marquis GR SE,,50.902758,-113.913536,,,0,42
806,3609,3609,NB Cranarch RD @ Cranford DR SE,,50.877725,-113.976025,,,0,34
807,3610,3610,SB 52 St @ Mckenzie Towne Li SE,,50.915431,-113.956968,,,0,114
808,3613,3613,NB 11 ST SE @ 21 AV SE,,51.034821,-114.03663,,,0,36
809,3614,3614,WB Aspen Dr @ Spruce WY NW,,51.090585,-114.220202,,,0,36
810,3615,3615,EB 9 AV SW @ 3 ST SW,,51.044651,-114.069407,,,0,2
811,3616,3616,NB 1 ST SW @ 7 AV SW,,51.046327,-114.065368,,,0,2
812,3617,3617,NB 52 ST SE @ New Brighton DR,,50.92625,-113.957873,,,0,103
813,3618,3618,EB Mckenzie Towne LI @ Promenade WY SE,,50.912541,-113.958436,,,0,75
814,3619,3619,NB 52 ST SE @ McIvor BV,,50.913332,-113.952592,,,0,68
815,3620,3620,SB 52 ST SE @ McIvor BV,,50.912084,-113.951451,,,0,73
816,3621,3621,Somerset-Bridlewood Stn,,50.898657,-114.069956,,,0,141
817,3622,3622,Somerset-Bridlewood Stn,,50.898469,-114.069383,,,0,201
818,3623,3623,Somerset Bridlewood Terminal,,50.898693,-114.069754,,,0,85
819,3625,3625,NB Chaparal DR @ 194 AV SE,,50.877545,-114.03677,,,0,53
820,3626,3626,WB 69 Street CTrain Station,,51.037605,-114.188486,,,0,156
821,3627,3627,EB 69 Street CTrain Station,,51.037507,-114.188475,,,0,156
822,3628,3628,WB Sirocco CTrain Station,,51.038152,-114.169585,,,0,156
823,3629,3629,EB Sirocco CTrain Station,,51.038105,-114.169484,,,0,156
824,3630,3630,WB 45 Street CTrain Station,,51.037942,-114.153369,,,0,156
825,3631,3631,EB 45 Street CTrain Station,,51.037868,-114.15358,,,0,156
826,3632,3632,WB Westbrook CTrain Station,,51.040547,-114.136596,,,0,156
827,3633,3633,EB Westbrook CTrain Station,,51.040433,-114.136348,,,0,156
828,3634,3634,WB Shaganappi Point CTrain Station,,51.041603,-114.124256,,,0,156
829,3635,3635,EB Shaganappi Point CTrain Station,,51.041523,-114.124181,,,0,156
830,3636,3636,WB Sunalta CTrain Station,,51.044856,-114.100198,,,0,156
831,3637,3637,EB Sunalta CTrain Station,,51.044572,-114.098818,,,0,156
832,3638,3638,WB Downtown-West Kerby Station (TD Free Fare Zone),,51.04723,-114.087697,,,0,156
833,3639,3639,EB Downtown West-Kerby Station (TD Free Fare Zone),,51.047123,-114.087684,,,0,156
834,3640,3640,NB Tuscany CTrain Station,,51.13451,-114.235512,,,0,159
835,3641,3641,SB Tuscany CTrain Station,,51.134439,-114.235681,,,0,159
836,3642,3642,SB 52 ST SE @ 90 AV SE,,50.971522,-113.958773,,,0,102
837,3643,3643,NB 52 ST SE @ Dufferin PL SE,,50.958049,-113.958149,,,0,68
838,3644,3644,NB 52 ST SE @ Dufferin BV SE,,50.954384,-113.958151,,,0,90
839,3645,3645,Westbrook LRT Station,,51.040765,-114.136517,,,0,204
840,3646,3646,WB 112 AV NW @ 110 AV NW,,51.154255,-114.190724,,,0,29
841,3647,3647,WB 112 AV NW @ 76 ST NW,,51.154243,-114.197387,,,0,29
842,3649,3649,WB Sun Valley BV @ Suncrest WY SE,,50.906717,-114.04112,,,0,63
843,3652,3652,EB 90 AV SE @ 38 ST SE,,50.972213,-113.978068,,,0,29
844,3654,3654,SB Sun Valley BV @ Sun Harbour RD SE,,50.900493,-114.024545,,,0,63
845,3656,3656,EB Sun Valley BV @ W. of Sunmills DR SE,,50.906498,-114.050233,,,0,86
846,3657,3657,EB Cranston GA  @ Cranston AV SE,,50.867507,-113.968378,,,0,33
847,3658,3658,NB Seton WY @ 212 AV SE,,50.863974,-113.951411,,,0,33
848,3659,3659,WB Cranston GA  @ Cranford WY SE,,50.867725,-113.967602,,,0,34
849,3671,3671,SB Seton WY @ 212 AV SE,,50.864121,-113.951909,,,0,34
850,3688,3688,SB Evanston VW @ Evansbrooke WY NW,,51.166567,-114.12157,,,0,41
851,3689,3689,EB Evanston VW @ Evansbrooke LI NW,,51.164535,-114.119992,,,0,41
852,3690,3690,EB Evanston VW @ Evanston RI NW,,51.164264,-114.117595,,,0,41
853,3691,3691,EB Evanston VW @ Evansmeade WY NW,,51.164744,-114.113964,,,0,41
854,3692,3692,NB Evanston VW @ Evansford RD NW,,51.167269,-114.112493,,,0,41
855,3693,3693,NB Symons Valley PY @ Evanston VW (East Leg)  NW,,51.168605,-114.112507,,,0,72
856,3694,3694,NB Symons Valley PY @ Evansford CL NW,,51.170977,-114.10938,,,0,72
857,3698,3698,SB Evanspark BV @ Evanston DR NW,,51.173301,-114.118112,,,0,41
858,3699,3699,SB Evanspark BV @ Evansview GA NW,,51.170095,-114.118084,,,0,41
859,3700,3700,WB Symons Valley PY @ Evanspark BV NW,,51.168259,-114.118847,,,0,111
860,3701,3701,SB Cortina DR @ Cortina WY SW,,51.034059,-114.220994,,,0,37
861,3702,3702,EB St Moritz DR @ Val Gardena PL SW,,51.032261,-114.214483,,,0,37
862,3703,3703,NB 77 ST SW @ Wentworth DR,,51.054582,-114.199285,,,0,36
863,3704,3704,NB 77 ST SW @ 9 AV SW,,51.059809,-114.199312,,,0,73
864,3705,3705,NB 77 ST SW @ Weston DR,,51.063513,-114.19926,,,0,73
865,3706,3706,EB Old Banff Coach RD @ 77 ST SW,,51.066891,-114.198633,,,0,73
866,3707,3707,SB 77 ST SW @ Weston DR,,51.063063,-114.199601,,,0,72
867,3708,3708,SB 77 ST SW @ 9 AV SW,,51.059438,-114.199606,,,0,36
868,3709,3709,SB 77 ST SW @ 10 AV SW,,51.057622,-114.19963,,,0,36
869,3710,3710,NB 77 ST SW @ 10 AV SW,,51.058045,-114.199262,,,0,36
870,3713,3713,NB 85 ST SW @ Strathlea AV,,51.049074,-114.210734,,,0,73
871,3714,3714,NB 85 ST SW @ Wentworth DR,,51.05724,-114.210743,,,0,37
872,3715,3715,NB 85 ST SW @ 8 AV SW,,51.063605,-114.210845,,,0,37
873,3716,3716,NB 85 ST SW @ 9 AV SW,,51.060095,-114.210842,,,0,37
874,3717,3717,EB Old Banff Coach RD @ 89 ST SW,,51.066878,-114.215864,,,0,38
875,3718,3718,SB 85 ST SW @ Old Banff Coach RD,,51.066516,-114.211213,,,0,38
876,3719,3719,SB 85 ST SW  @ 8 AVE SW,,51.063115,-114.211174,,,0,75
877,3720,3720,SB 85 ST SW @ 14 AV SW,,51.044964,-114.211181,,,0,38
878,3721,3721,SB 85 ST SW @ Aspen Summit BV,,51.043012,-114.211184,,,0,38
879,3722,3722,SB 85 ST SW @ Aspen Stone BV,,51.040596,-114.211165,,,0,38
880,3724,3724,SB 45 Street West LRT Station,,51.038187,-114.152867,,,0,36
881,3725,3725,SB 45 ST SW @ Grove Hill RD,,51.033182,-114.152866,,,0,36
882,3726,3726,SB Sierra Morena BV @ S Morena CL SW,,51.014523,-114.176277,,,0,37
883,3727,3727,WB Sierra Morena BV @ Sierra Madre CR SW,,51.013131,-114.177844,,,0,37
884,3728,3728,WB Sierra Morena BV @ Sierra Nevada CL SW,,51.013395,-114.181678,,,0,37
885,3729,3729,NB Sierra Morena BV @ Sierra Morena PA SW,,51.014927,-114.185564,,,0,37
886,3730,3730,NB Sierra Morena BV @ Sierra Morena GV SW,,51.017071,-114.185662,,,0,37
887,3731,3731,NB Sierra Morena BV @ Sierra Morena CO SW,,51.019305,-114.186033,,,0,37
888,3732,3732,EB 17 AV SW @ 69 Street West LRT Station,,51.037648,-114.186189,,,0,38
889,3733,3733,NB 45 ST SW @ N. of Richmond RD,,51.019599,-114.152695,,,0,37
890,3734,3734,NB 45 ST SW @ 35 AV SW,,51.022677,-114.152378,,,0,37
891,3735,3735,NB 45 ST SW @ 30 AV SW,,51.027139,-114.152388,,,0,37
892,3736,3736,NB 45 ST SW @ 26 AV SW,,51.030753,-114.152681,,,0,37
893,3737,3737,NB 45 ST SW @ 25 AV SW,,51.03289,-114.152754,,,0,37
894,3738,3738,NB 45 Street West LRT Station,,51.038227,-114.152665,,,0,37
895,3739,3739,NB 45 ST SW @ 13 AV SW,,51.041864,-114.152576,,,0,37
896,3740,3740,NB 45 ST SW @ Rossmere RD,,51.046787,-114.152554,,,0,37
897,3742,3742,SB 84 ST SE @ 17 AV SE,,51.03947,-113.908026,,,0,24
898,3743,3743,NB 84 ST SE @ 17 AV SE,,51.041004,-113.908306,,,0,23
899,3744,3744,Westbrook LRT Station,,51.040166,-114.13604,,,0,87
900,3745,3745,26th Avenue SW Station (SB),,51.029738,-114.141304,,,0,102
901,3746,3746,Richmond Road Station (SB),,51.023078,-114.141391,,,0,102
902,3747,3747,Sarcee Road Station (EB),,51.012341,-114.140485,,,0,187
903,3748,3748,Mount Royal University Terminal,,51.014409,-114.133724,,,0,44
904,3751,3751,54 Avenue SW Station (SB),,51.005437,-114.118236,,,0,98
905,3755,3755,Elbow Drive Station (EB),,50.979439,-114.082524,,,0,44
906,3756,3756,Heritage LRT Station,,50.978835,-114.07516,,,0,353
907,3761,3761,54 Avenue SW Station (NB),,51.005343,-114.117693,,,0,98
908,3764,3764,Mount Royal University Terminal,,51.014084,-114.133599,,,0,43
909,3765,3765,Sarcee Road Station (WB),,51.012577,-114.139418,,,0,184
910,3766,3766,Richmond Road Station (NB),,51.022202,-114.140973,,,0,102
911,3767,3767,26th Avenue SW Station (NB),,51.030262,-114.141029,,,0,102
912,3786,3786,WB Old Banff Coach RD @ Coulee WY SW,,51.067166,-114.194057,,,0,36
913,3788,3788,EB 12 AV SW @ 2 ST SW,,51.041493,-114.068727,,,0,31
914,3791,3791,WB 10 AV @ E. of 14 ST SW,,51.044231,-114.092994,,,0,32
915,3792,3792,Sunalta LRT Station WB,,51.044401,-114.099728,,,0,32
916,3795,3795,Mount Royal University Terminal,,51.014743,-114.133965,,,0,58
917,3796,3796,Mount Royal University Terminal,,51.01441,-114.133767,,,0,59
918,3797,3797,Mount Royal University Terminal EB,,51.014102,-114.133093,,,0,40
919,3798,3798,WB MRU West Gate,,51.014526,-114.133343,,,0,39
920,3800,3800,EB Country Village RD @ Country Village  LI NE,,51.160278,-114.066893,,,0,40
921,3801,3801,EB  Country Village RD@ E.of Country Village LI NE,,51.160481,-114.06378,,,0,40
922,3802,3802,EB  Country Village  RD@ W.of Coventry Hills BV NE,,51.161775,-114.05889,,,0,40
923,3803,3803,NB 11 ST SE @ 20 AV SE,,51.035485,-114.036666,,,0,12
924,3804,3804,SB 11 ST SE @ 19 AV SE,,51.0364,-114.036936,,,0,49
925,3805,3805,SB 42 ST SE @ 110 AV SE,,50.955881,-113.974156,,,0,22
926,3809,3809,WB Coventry Hills WY @ Coventry DR NE,,51.165511,-114.043628,,,0,40
927,3810,3810,WB Coventry Hills WY @ Covewood LI NE,,51.165019,-114.045917,,,0,40
928,3811,3811,WB Coventry Hills WY @ W. of Covewood LI NE,,51.164865,-114.048304,,,0,40
929,3812,3812,WB Coventry Hills WY @ Covepark DR NE,,51.164641,-114.052281,,,0,40
930,3813,3813,WB Country Village RD @ Coventry Hills WY NE,,51.162892,-114.05725,,,0,40
931,3814,3814,WB Country Village RD @ W.of Coventry Hills WY NE,,51.161652,-114.060079,,,0,40
932,3815,3815,WB Coventry Hills RD @ E. of Country Village LI NE,,51.160623,-114.06524,,,0,40
933,3816,3816,NB Crowfoot CTrain Station,,51.122691,-114.206871,,,0,159
934,3817,3817,SB Crowfoot CTrain Station,,51.122571,-114.207093,,,0,159
935,3818,3818,SB Tuscany Springs HL @ Tusselwood DR NW,,51.134627,-114.249843,,,0,38
936,3819,3819,NB Tuscany Springs HL @ Tuscany WY NW,,51.13258,-114.252577,,,0,39
937,3820,3820,SB Tuscany WY @ Tuscany Springs HL NW,,51.132075,-114.253119,,,0,38
938,3821,3821,NB Tuscany WY @ Tuscany Ridge HT NW,,51.13087,-114.251378,,,0,39
939,3822,3822,SB Tuscany WY @ Tuscany Ridge HT NW,,51.130443,-114.251575,,,0,38
940,3823,3823,NB Tuscany WY @ Tuscany DR NW,,51.129367,-114.250181,,,0,39
941,3824,3824,NB Tuscany DR @ Tuscany Ridge CM NW,,51.125784,-114.253944,,,0,39
942,3825,3825,NB Tuscany DR @ Tuscany BV NW,,51.121758,-114.254446,,,0,39
943,3826,3826,WB Tuscany DR @ Tuscany Ridge CL NW,,51.119506,-114.251596,,,0,39
944,3827,3827,WB Tuscany DR @ Tuscany Glen RD NW,,51.118704,-114.249242,,,0,39
945,3828,3828,NB Tuscany Glen RD @ Tuscany Glen PA NW,,51.116046,-114.250172,,,0,39
946,3829,3829,NB Tuscany Glen PA @ Tuscany Estates DR NW,,51.114609,-114.248743,,,0,39
947,3830,3830,WB Tuscany Meadows DR @ Tuscany Meadows CL NW,,51.11462,-114.244572,,,0,39
948,3831,3831,SB Tuscany Ravine RD @ Tuscany DR NW,,51.118486,-114.241895,,,0,39
949,3832,3832,SB  Tuscany WY @ Tuscany Hills PA NW,,51.120753,-114.243648,,,0,39
950,3833,3833,SB Tuscany WY @ Tuscany BV NW,,51.123456,-114.24593,,,0,39
951,3834,3834,WB Tuscany BV @ Tuscany Valley VW NW,,51.124991,-114.24348,,,0,39
952,3835,3835,WB Tuscany BV @ Tuscany Springs BV NW,,51.125611,-114.238884,,,0,39
953,3836,3836,SB Tuscany Ravine RD @ Tuscany Meadows CM NW,,51.116983,-114.240563,,,0,39
954,3837,3837,EB Crowfoot CR @ 200 Crowfoot GA NW,,51.128777,-114.200329,,,0,39
955,3838,3838,WB Crowfoot CR @ Crowfoot GA NW,,51.129235,-114.201073,,,0,39
956,3839,3839,SB  Crowfoot CR @  Crowfoot TC NW,,51.127963,-114.204666,,,0,39
957,3841,3841,WB Country Hills BV @ W.Leg Hamptons BV NW,,51.138948,-114.157778,,,0,36
958,3843,3843,NB Symons Valley RD @ Kincora Glen RD NW,,51.165901,-114.130012,,,0,42
959,3844,3844,EB Symons Valley PY @ Symons Valley RD NW,,51.167835,-114.130483,,,0,31
960,3845,3845,Brentwood LRT Station,,51.086763,-114.132446,,,0,38
961,3850,3850,NB Tuscany WY @ Tuscany  BV NW,,51.125168,-114.2468,,,0,38
962,3851,3851,NB Tuscany  WY @ Tuscany Valley HT NW,,51.12877,-114.249659,,,0,38
963,3852,3852,SB Tuscany Valley VW @ Tuscany  DR NW,,51.129143,-114.242976,,,0,38
964,3853,3853,SB Tuscany Valley VW @ Tuscany  Valley GA NW,,51.126923,-114.243808,,,0,38
965,3855,3855,EB 17 AV SW @ 85 ST SW,,51.037814,-114.210483,,,0,75
966,3857,3857,Crowfoot LRT Station,,51.123704,-114.208211,,,0,113
967,3858,3858,Crowfoot LRT Station,,51.124323,-114.208174,,,0,0
968,3859,3859,SB Beacon Hill CTR @ Canadian Tire,,51.159819,-114.159768,,,0,66
969,3860,3860,NB Sarcee TR @ Citadel GR NW,,51.145159,-114.167993,,,0,36
970,3861,3861,SB Sarcee TR @ Citadel BV NW,,51.144054,-114.168418,,,0,37
971,3863,3863,SB Beacon Hill CTR @ Shoppers Drug Mart,,51.157634,-114.160177,,,0,66
972,3864,3864,SB Sherwood BV @ Sherwood WY NW,,51.159888,-114.146721,,,0,37
973,3865,3865,NB Sherwood BV NW @ Sherwood WY NW,,51.160366,-114.147392,,,0,36
974,3866,3866,SB  Sherwood BV NW @ E. of Sherwood LI NW,,51.160692,-114.149677,,,0,37
975,3868,3868,NB 52 ST SE @ New Brighton DR,,50.926314,-113.957833,,,0,48
976,3870,3870,Douglas Glen Terminal,,50.952187,-113.997086,,,0,87
977,3874,3874,NB Ogden RD @ 69 AV SE,,50.990751,-114.001543,,,0,48
978,3875,3875,NB Ogden RD @ 38 AV SE,,51.020499,-114.029921,,,0,48
979,3876,3876,NB 11 ST SE @ 26 AV SE,,51.031202,-114.036611,,,0,48
980,3877,3877,WB Silverado Skies DR @ Silverado Skies LI SW,,50.887976,-114.079874,,,0,48
981,3878,3878,WB Silverado Skies DR @ Silverado Skies MR SW,,50.888255,-114.083454,,,0,48
982,3880,3880,WB 4 AV SE @ 1 ST SE,,51.049379,-114.060038,,,0,39
983,3881,3881,WB 4 AV SW @ 2 ST SW,,51.049567,-114.067532,,,0,79
984,3882,3882,SB 5 ST SW @ 7 AV SW,,51.046899,-114.073908,,,0,145
985,3883,3883,EB 9 AV SW @ 2 ST SW,,51.044682,-114.06894,,,0,92
986,3884,3884,EB 9 AV S @ Centre ST S,,51.044508,-114.062344,,,0,92
987,3886,3886,EB 9 AV SE @ 6 ST SE,,51.043984,-114.048665,,,0,160
988,3887,3887,EB 9 AV SE @ 8 ST SE,,51.043142,-114.041014,,,0,5
989,3889,3889,EB 26 AV SE @ 11 ST SE,,51.030515,-114.035799,,,0,49
990,3890,3890,SB Ogden RD @ Highfield BV SE,,51.020424,-114.030386,,,0,49
991,3891,3891,SB Ogden RD @ 69 AV SE,,50.990623,-114.001822,,,0,49
992,3896,3896,EB 130 AV SE @ 48 ST SE,,50.931827,-113.964176,,,0,49
993,3897,3897,SB 52 ST SE @ Prestwick GA,,50.926688,-113.958411,,,0,49
994,3900,3900,YYC Airport Domestic Terminal,,51.132649,-114.010976,,,0,77
995,3902,3902,WB 114 AV SE (WBay) @ 29 ST SE,,50.952234,-113.997211,,,0,22
996,3904,3904,EB Quarry Park BV @ 18 ST SE,,50.963316,-114.010487,,,0,79
997,3905,3905,NB Macleod TR @ 7 AVE SE,,51.046492,-114.057951,,,0,39
998,3909,3909,SB Ogden RD @ 69 AV SE,,50.990647,-114.00182,,,0,5
999,3911,3911,NB Centre ST S @ 4 AV S,,51.049686,-114.062587,,,0,39
1000,3915,3915,SB Silverado Ridg LI @ Silverado Skies DR SW,,50.888373,-114.086391,,,0,48
1001,3917,3917,EB 9 AV SE @ 6 ST SE,,51.043968,-114.048615,,,0,1
1002,3919,3919,SB Silverado Ridge LI @ Silverado BV SW,,50.886528,-114.085624,,,0,48
1003,3920,3920,SB Silverado BV @ Silverado Ranch WY SW,,50.885111,-114.087248,,,0,48
1004,3921,3921,WB Promenade WY @ E.Leg Promenade PA SE,,50.913348,-113.961253,,,0,41
1005,3922,3922,SB Silverado BV @ Silverado Crest LD SW,,50.882896,-114.087159,,,0,48
1006,3923,3923,EB 18 ST SE @ 24 ST SE,,50.956186,-114.002562,,,0,33
1007,3924,3924,EB Silverado WY @ Silverado Plains CL SW,,50.881416,-114.084502,,,0,48
1008,3926,3926,WB Everridge DR @ 24 St SW,,50.910939,-114.117804,,,0,33
1009,3927,3927,NB  Everridge DR @ Evermeadow GA SW,,50.911349,-114.12199,,,0,33
1010,3928,3928,NB  Everridge DR @ Evermeadow AV SW,,50.914359,-114.123327,,,0,33
1011,3929,3929,NB Sheriff King ST @ Silverado WY SW,,50.881618,-114.07085,,,0,101
1012,3930,3930,NB  Everridge DR @ Everhollow RI SW,,50.917866,-114.124021,,,0,33
1013,3931,3931,NB Beacon Hill Ctr @ Canadian Tire,,51.160601,-114.159411,,,0,96
1014,3932,3932,EB  Fish Creek  BV @ Everridge DR SW,,50.921209,-114.122435,,,0,33
1015,3933,3933,EB Fish Creek BV @ 100M W. of 24 ST SW,,50.921214,-114.117881,,,0,33
1016,3934,3934,EB Fish Creek BV @ Everstone DR SW,,50.917506,-114.10509,,,0,33
1017,3935,3935,WB  Everridge DR @ Eversyde ST SW,,50.911227,-114.109449,,,0,33
1018,3936,3936,NB Hawkwood DR @ John Laurie BV NW,,51.126,-114.188076,,,0,36
1019,3937,3937,EB New Brighton GA @ 52 ST SE,,50.918141,-113.957228,,,0,79
1020,3938,3938,WB New Brighton GA @ New Brighton DR SE,,50.918489,-113.955384,,,0,79
1021,3939,3939,SB  New Brighton DR @ New Brighton MR SE,,50.917136,-113.954206,,,0,81
1022,3940,3940,WB Fish Creek BV @ James McKevitt  RD SW,,50.917782,-114.100989,,,0,59
1023,3941,3941,WB  New Brighton DR @ New Brighton GD SE,,50.916225,-113.952373,,,0,43
1024,3943,3943,SB Fish Creek BV @ Everbrook DR SW,,50.917936,-114.110114,,,0,33
1025,3944,3944,EB 5 AV SW @ 9 ST SW,,51.048867,-114.082674,,,0,46
1026,3954,3954,WB 3 AV NW @ 34A ST NW,,51.05913,-114.139036,,,0,85
1027,3955,3955,NB 53 ST NW @ Dalhurst GA,,51.11368,-114.155843,,,0,150
1028,3956,3956,SB 53 ST NW @ N.Leg Dalhousie DR,,51.113235,-114.156771,,,0,116
1029,3960,3960,SB Dalhousie CTrain Station,,51.103403,-114.161068,,,0,159
1030,3961,3961,SB Fairmount DR @ Willow PK DR SE,,50.958025,-114.059274,,,0,24
1031,3962,3962,SB Fairmount DR @ 99 AV SE,,50.961179,-114.05879,,,0,24
1032,3963,3963,NB Lake Fraser DR @ S. of Lake Fraser GR SE,,50.945203,-114.068399,,,0,22
1033,3965,3965,WB Lake Bonavista DR @ Lake Rosen CR SE,,50.947341,-114.063281,,,0,19
1034,3966,3966,WB 32 AV NW @ Collegiate BV,,51.081593,-114.138072,,,0,32
1035,3967,3967,WB Everstone BV @ James McKevitt RD SW,,50.910939,-114.101087,,,0,33
1036,3968,3968,NB Copperfield BV @ Copperfield CL SE,,50.910169,-113.944716,,,0,4
1037,3969,3969,WB Copperfield BV @ W. of Copperfield CR SE,,50.908289,-113.942335,,,0,4
1038,3970,3970,WB Copperfield BV @ Copperfield CR SE,,50.908804,-113.939877,,,0,2
1039,3971,3971,NB Copperfield BV @ Copperfield GV SE,,50.909174,-113.938691,,,0,41
1040,3972,3972,EB Copperfield BV @ Copperfield LN SE,,50.908158,-113.941091,,,0,41
1041,3973,3973,SB Copperfield BV @ Copperfield GD SE,,50.909355,-113.944897,,,0,41
1042,3974,3974,NB Barlow TR @ Airport RD NE,,51.135353,-114.000277,,,0,38
1043,3975,3975,EB McKenzie Towne LI @ 52 ST SE,,50.914394,-113.956007,,,0,72
1044,3976,3976,WB McKenzie Towne LI @ 52 ST SE,,50.913958,-113.956939,,,0,3
1045,3977,3977,WB 80 AV NE @ Saddlecreek GA,,51.125299,-113.954817,,,0,41
1046,3978,3978,EB Sunpark PZ @ W. of Sunpark DR SE,,50.901805,-114.057813,,,0,37
1047,3979,3979,WB Sunpark  PZ @ Sunpark  DR SE,,50.901119,-114.055936,,,0,32
1048,3980,3980,NB Sunpark  PZ @ Sundance Place PARK SE,,50.902794,-114.057808,,,0,32
1049,3981,3981,EB Dalhousie DR @ Dalham CR NW,,51.106229,-114.158333,,,0,153
1050,3982,3982,EB Dalhousie DR @ 53 ST NW,,51.107382,-114.161331,,,0,153
1051,3983,3983,WB Varsity DR @ 48 ST NW,,51.093981,-114.158024,,,0,38
1052,3984,3984,WB Varsity DR @ Shaganappi TR NW,,51.093611,-114.155761,,,0,38
1053,3985,3985,WB Varsity DR @ Viscount DR NW,,51.093029,-114.152569,,,0,38
1054,3986,3986,WB Varsity DR @ 41 ST NW,,51.092477,-114.149461,,,0,38
1055,3987,3987,WB Varsity DR @ Vancouver CR NW,,51.090439,-114.144116,,,0,38
1056,3988,3988,WB Varsity DR @ 37 ST NW,,51.089148,-114.14171,,,0,38
1057,3989,3989,SB 37 ST NW @ Varsity DR,,51.088387,-114.141457,,,0,38
1058,3990,3990,EB Varsity DR @ Vancouver CR NW,,51.089986,-114.143587,,,0,38
1059,3991,3991,EB Varsity DR @ 41 ST NW,,51.092105,-114.148227,,,0,38
1060,3992,3992,EB Varsity DR @ Viscount DR NW,,51.09273,-114.15173,,,0,38
1061,3993,3993,NB Crestmont  DR @ Crestmont WY SW,,51.084138,-114.263033,,,0,38
1062,3994,3994,EB Varsity DR @ 48 ST NW,,51.093675,-114.1569,,,0,38
1063,3995,3995,EB Crestmont DR @ Cresthaven RI SW,,51.082687,-114.265561,,,0,38
1064,4000,4000,Dalhousie LRT Station WB,,51.103917,-114.159,,,0,184
1065,4001,4001,Dalhousie LRT Station WB,,51.104067,-114.158891,,,0,114
1066,4002,4002,Dalhousie LRT Station NB,,51.10416,-114.158285,,,0,146
1067,4003,4003,Dalhousie LRT Station NB,,51.104132,-114.158244,,,0,79
1068,4004,4004,EB Hamptons BV @ Hamptons SQ NW,,51.144516,-114.157808,,,0,39
1069,4005,4005,NB Hamptons BV @ Hamptons GR NW,,51.143652,-114.161093,,,0,39
1070,4006,4006,WB Hamptons BV @ Hampshire CI NW,,51.141412,-114.1596,,,0,39
1071,4007,4007,NB Hamptons BV @ Hampshire CL NW,,51.14054,-114.157051,,,0,39
1072,4009,4009,NB Royal Oak DR @ 200 Royal Birch ME NW,,51.146704,-114.215431,,,0,39
1073,4010,4010,EB Arbour Lake WY @ Arbour Ridge WY NW,,51.137661,-114.186009,,,0,39
1074,4011,4011,SB Edgepark BV @ Edgebyne CR NW,,51.128499,-114.156033,,,0,75
1075,4012,4012,SB Edgepark BV @ Edgeland RI NW,,51.132108,-114.158342,,,0,75
1076,4013,4013,NB Edgepark  BV @  Edgepark  RI NW,,51.133178,-114.157947,,,0,75
1077,4014,4014,NB Edgepark BV @ Edgebyne CR NW,,51.12919,-114.156348,,,0,75
1078,4015,4015,NB Edgedale DR @ Edgehill DR NW,,51.122947,-114.157075,,,0,39
1079,4016,4016,NB Edgedale DR @ Edegehill DR NW,,51.120154,-114.15909,,,0,39
1080,4017,4017,NB 53 ST NW @ Dalhart DR,,51.111311,-114.158304,,,0,113
1081,4018,4018,SB Dalhousie DR @ Dalcastle DR NW,,51.114474,-114.165555,,,0,16
1082,4019,4019,WB Dalhousie DR @ Dalmeny GA NW,,51.1161,-114.161797,,,0,16
1083,4020,4020,SB Edgedale DR @ Edgehill DR NW,,51.121836,-114.157958,,,0,38
1084,4021,4021,SB Edgedale DR @ Edgehill DR NW,,51.119361,-114.158667,,,0,38
1085,4022,4022,Dalhousie LRT Station EB,,51.103439,-114.158958,,,0,152
1086,4023,4023,Dalhousie LRT Station EB,,51.1034,-114.158832,,,0,151
1087,4024,4024,SB Cresthaven RI @ Crestmont BV SW,,51.085378,-114.266801,,,0,38
1088,4025,4025,Dalhousie LRT Station NB,,51.103777,-114.15808,,,0,113
1089,4026,4026,NB Dalton DR @ Dalton BA NW,,51.106264,-114.146455,,,0,16
1090,4027,4027,WB Dalhart RD @ Dalton DR NW,,51.107458,-114.14671,,,0,16
1091,4028,4028,WB 24 AV NW @ Collegiate RD,,51.074354,-114.143785,,,0,73
1092,4030,4030,EB 14 AV NW @ 20A ST NW,,51.065118,-114.108603,,,0,14
1093,4031,4031,EB 14 AV NW @ 22 ST NW,,51.06511,-114.113015,,,0,14
1094,4032,4032,NB 22A ST NW @ N. of 12 AV NW,,51.064016,-114.114967,,,0,14
1095,4033,4033,WB 24 AV NW @ Upton PL,,51.074527,-114.136001,,,0,73
1096,4035,4035,EB 24 AV NW @ Collegiate RD,,51.07422,-114.140458,,,0,40
1097,4036,4036,EB 24 AV NW @ Upper PL,,51.074168,-114.131983,,,0,40
1098,4037,4037,SB 39 ST NW @ 32 AV NW,,51.080667,-114.145119,,,0,56
1099,4038,4038,EB Unwin RD @ Usher RD NW,,51.071922,-114.126968,,,0,172
1100,4039,4039,SB Uxbridge DR @ Unwin RD NW,,51.07053,-114.129995,,,0,140
1101,4040,4040,SB 24 ST NW @ Chicoutimi DR,,51.08486,-114.117997,,,0,38
1102,4041,4041,SB 24 ST NW @ Charlebois DR,,51.082549,-114.118012,,,0,38
1103,4043,4043,EB 40 AV NW @ 36 ST NW,,51.087094,-114.138252,,,0,72
1104,4045,4045,SB Brisebois DR @ Barr RD NW,,51.090596,-114.132151,,,0,114
1105,4046,4046,WB Northmount DR @ Brantford CR NW,,51.090054,-114.12073,,,0,34
1106,4047,4047,WB Northmount DR @ 26 ST NW,,51.09047,-114.122647,,,0,34
1107,4048,4048,WB Northmount DR @ Bennett CR NW,,51.091968,-114.126125,,,0,34
1108,4049,4049,SB Brisebois DR @ Capri AV NW,,51.095397,-114.126569,,,0,58
1109,4050,4050,EB Northmount DR @ Bowlen ST NW,,51.090623,-114.123352,,,0,34
1110,4051,4051,EB Northmount DR @ Brantford DR NW,,51.089878,-114.120527,,,0,34
1111,4052,4052,SB 48 ST NW @ 23 AV NW,,51.079405,-114.159703,,,0,16
1112,4053,4053,WB 48 ST NW @ 22 AV NW,,51.077108,-114.159944,,,0,16
1113,4054,4054,WB 48 ST NW @ 19 AV NW,,51.075388,-114.163176,,,0,16
1114,4060,4060,SB 77 ST NW @ 46 AV NW,,51.093748,-114.199432,,,0,29
1115,4061,4061,SB 77 ST NW @ 43 AV NW,,51.090663,-114.199419,,,0,29
1116,4062,4062,NB 77 ST NW @ S. of 43 AV NW,,51.090784,-114.199226,,,0,30
1117,4063,4063,WB 46 AV NW @ 77 ST NW,,51.094148,-114.199951,,,0,30
1118,4064,4064,WB 46 AV NW @ 81 ST NW,,51.094152,-114.205764,,,0,30
1119,4069,4069,WB 40 AV NW @ W. of Shaganappi TR,,51.088358,-114.156498,,,0,34
1120,4070,4070,EB 40 AV NW @ 40 ST NW,,51.088196,-114.14691,,,0,34
1121,4071,4071,EB 40 AV NW @ Vardale RD,,51.0878,-114.142864,,,0,34
1122,4072,4072,SB Bowwood DR @ 31 AV NW,,51.080342,-114.174239,,,0,29
1123,4073,4073,WB 31 AV NW @ Bowview RD,,51.080688,-114.178845,,,0,30
1124,4079,4079,WB Aspen WY @ Silver Birch WY NW,,51.090947,-114.217341,,,0,36
1125,4080,4080,WB Bowfort RD @ Bowridge DR NW,,51.085075,-114.209853,,,0,74
1126,4081,4081,WB 40 AV NW @ 42 ST NW,,51.088374,-114.151641,,,0,34
1127,4082,4082,NB 24 ST NW @ Cherokee DR,,51.084783,-114.117787,,,0,38
1128,4084,4084,NB 52 ST NE @ 80 AV NE,,51.125602,-113.958142,,,0,34
1129,4085,4085,WB Country Village WY @ Country Village LINK NE,,51.156637,-114.067011,,,0,121
1130,4086,4086,NB Saddlebrook DR @ Saddlelake WY NE,,51.131626,-113.929338,,,0,76
1131,4088,4088,WB Martindale BV @ Martha's WY NE,,51.122678,-113.961593,,,0,40
1132,4089,4089,SB Martindale DR @ Martindale BV NE,,51.120944,-113.954275,,,0,35
1133,4091,4091,EB Martindale BV @ Martha's CL NE,,51.122182,-113.962926,,,0,38
1134,4093,4093,EB Panamount BV @ Panamount DR NW,,51.159794,-114.07306,,,0,102
1135,4094,4094,WB Panamount BV @ Panamount HL NW,,51.159333,-114.076222,,,0,102
1136,4095,4095,EB Panamount BV @ Panorama Hills BV NW,,51.15797,-114.079612,,,0,102
1137,4097,4097,EB Country Village WY @ E.of Country Village LI NE,,51.156199,-114.066022,,,0,120
1138,4098,4098,EB Country Village WY @ W.of Country Village CV NE,,51.156133,-114.063516,,,0,120
1139,4099,4099,SB Harvest Hills BV @ Panamount GA NW,,51.15569,-114.069758,,,0,11
1140,4100,4100,North Pointe Terminal A,,51.157523,-114.067869,,,0,122
1141,4102,4102,NB Harvest Hills BV @ Country Hill BV NE,,51.154218,-114.067363,,,0,10
1142,4103,4103,NB Harvest Hills BV @ Coventry Hills DR NE,,51.164656,-114.069676,,,0,79
1143,4105,4105,NB Ranchlands BV @ Ranchview DR NW,,51.120887,-114.17821,,,0,39
1144,4106,4106,Children's Hospital (NB Childrens DR),,51.075545,-114.146732,,,0,42
1145,4107,4107,EB 32 AV NW @ 37 ST NW,,51.081349,-114.140578,,,0,60
1146,4108,4108,NB Tuscany Springs BV @ S.of Tuscany Springs GD NW,,51.133455,-114.237972,,,0,38
1147,4109,4109,EB Arbour Lake DR @ E. of Arbour Crest DR NW,,51.138588,-114.196504,,,0,38
1148,4110,4110,EB Arbour Lake DR @ Arbour Crest DR NW,,51.138743,-114.198853,,,0,38
1149,4111,4111,SB Arbour Lake DR @ Arbour Crest RD NW,,51.135415,-114.201843,,,0,39
1150,4114,4114,WB Panatela GA @ Harvest Hills BV NE,,51.167033,-114.069068,,,0,38
1151,4117,4117,NB Shawville BV @ N. of Shalom WY SE,,50.907917,-114.067614,,,0,116
1152,4118,4118,NB Shawville BV @ 162 AV SE,,50.904698,-114.066237,,,0,116
1153,4119,4119,NB Midrige DR @ Midcrest CR SE,,50.91717,-114.062863,,,0,22
1154,4124,4124,NB Saddletowne CI @ 80 AV NE,,51.125734,-113.944268,,,0,99
1155,4125,4125,WB Tuscany Ravine RD @ Tuscany Ravine TC NW,,51.113829,-114.239715,,,0,39
1156,4126,4126,WB Tuscany Ravine RD @ Tuscany Ravine CO NW,,51.111664,-114.237144,,,0,39
1157,4127,4127,WB Tuscany Ravine RD @ Tuscany Ravine HT NW,,51.11109,-114.234563,,,0,39
1158,4128,4128,EB Tuscany Ravine RD @ Tuscany Ravine CL NW,,51.111044,-114.236395,,,0,39
1159,4129,4129,WB Pinetown PL @ 56 ST NE,,51.076948,-113.952654,,,0,58
1160,4130,4130,NB 11 ST SE @ 70 AV SE,,50.991447,-114.039944,,,0,71
1161,4131,4131,WB 46 AV SE @ Highfield CI,,51.011517,-114.045339,,,0,30
1162,4132,4132,WB 46 AV SE @ 11 ST SE,,51.01212,-114.041219,,,0,30
1163,4135,4135,EB 34 AV SE @ 28 ST SE,,51.023069,-113.993301,,,0,36
1164,4136,4136,EB 34 AV SE @ 26A ST SE,,51.023097,-113.99508,,,0,36
1165,4137,4137,EB 34 AV SE @ 26 ST SE,,51.023092,-113.997959,,,0,36
1166,4138,4138,NB 26 ST SE @ Doverglen CR,,51.021351,-113.99889,,,0,36
1167,4139,4139,EB Tuscany Ravine RD @ Tuscany Ravine VW NW,,51.113167,-114.239097,,,0,39
1168,4140,4140,SB Tuscany Ravine RD @ Tuscany Meadows DR NW,,51.114228,-114.240606,,,0,39
1169,4141,4141,WB Chaparral DR @ Chapala MT SE,,50.882116,-114.039745,,,0,53
1170,4142,4142,NB 60 ST NE @ Saddlehorn DR,,51.12987,-113.946582,,,0,26
1171,4145,4145,EB Panatella GA @ Harvest Hills BV NW,,51.167071,-114.069925,,,0,38
1172,4146,4146,SB Panatella DR @ Panatella GA NW,,51.167162,-114.073699,,,0,38
1173,4147,4147,SB Saddlecrest BV @ Saddlecrest PL NE,,51.135175,-113.942744,,,0,76
1174,4152,4152,SB Tararidge DR @ Taradale DR NE,,51.113476,-113.940561,,,0,52
1175,4153,4153,WB 64 AV NE @ Tararidge DR,,51.110765,-113.941798,,,0,65
1176,4155,4155,NB Dalhousie CTrain Station,,51.103527,-114.16096,,,0,159
1177,4156,4156,WB Coventry Hills WY @ Coverbrook GR NE,,51.169266,-114.054461,,,0,48
1178,4157,4157,EB 1 AV NE @ 8A ST NE,,51.053175,-114.041188,,,0,31
1179,4158,4158,NB McKenzie Lake BV @ McKenzie Meadows DR SE,,50.900597,-113.991758,,,0,45
1180,4159,4159,EB 46 AV SW @ Glacier DR,,51.01236,-114.143542,,,0,40
1181,4160,4160,EB 46 AV SW @ 43 ST SW,,51.012419,-114.147788,,,0,40
1182,4161,4161,EB 46 AV SW @ 45 ST SW,,51.012418,-114.152194,,,0,40
1183,4163,4163,SB McKenzie Lake BV @ McKenzie Meadows DR SE,,50.899978,-113.992524,,,0,45
1184,4176,4176,WB Coach Hill RD @ Coach Side RD SW,,51.056901,-114.180273,,,0,37
1185,4177,4177,WB Coach Hill RD @ Coach Side CR SW,,51.056201,-114.182432,,,0,37
1186,4178,4178,WB Coach Hill RD @ Coach Bluff CR SW,,51.056015,-114.185926,,,0,37
1187,4182,4182,EB Oakfield DR @ Cedarbrook BA SW,,50.953973,-114.124426,,,0,32
1188,4183,4183,EB Oakfield DR @ 30 ST SW,,50.953974,-114.128883,,,0,32
1189,4184,4184,EB Cedarille DR @ Cedardale CR SW,,50.952473,-114.131126,,,0,32
1190,4185,4185,SB Cedarille DR @ Cedarwood HL SW,,50.955414,-114.1362,,,0,32
1191,4186,4186,SB Cedarille DR @ Cedarille CR SW,,50.957823,-114.136166,,,0,32
1192,4187,4187,WB Cedarille DR @ Oakfield DR SW,,50.959805,-114.132996,,,0,32
1193,4188,4188,WB Palliser DR @ 29 ST SW,,50.970417,-114.130348,,,0,15
1194,4189,4189,WB Palliser DR @ Oakwood DR SW,,50.969536,-114.125972,,,0,15
1195,4190,4190,WB Palliser DR @ Oakdale PL SW,,50.969544,-114.120814,,,0,15
1196,4191,4191,WB Palliser DR @ 22 ST SW,,50.969381,-114.113502,,,0,15
1197,4192,4192,WB Palliser DR @ Palisprior RD SW,,50.968055,-114.110422,,,0,15
1198,4195,4195,NB Parkland BV @ 200 Parkglen PL SE,,50.921644,-114.026078,,,0,37
1199,4196,4196,NB Parkland BV @ 146 AV SE,,50.916917,-114.024501,,,0,37
1200,4197,4197,EB Parkland BV @ Parkland PL SE,,50.927862,-114.034306,,,0,36
1201,4199,4199,EB Panatella GA @ Panatella DR NW,,51.167341,-114.073083,,,0,38
1202,4200,4200,NB Panatella DR @ Panatella BV NW,,51.165062,-114.074234,,,0,38
1203,4201,4201,NB Panatella BV @ Panatella CR NW,,51.165229,-114.082142,,,0,38
1204,4202,4202,SB Macleod TR @ 96 AV SW,,50.968245,-114.071848,,,0,26
1205,4203,4203,SB Macleod TR @ Hull AV SW,,50.975187,-114.071809,,,0,26
1206,4206,4206,NB Macleod TR @ 86 AV SE,,50.976346,-114.071367,,,0,26
1207,4207,4207,NB Macleod TR @ 94 AV SE,,50.969131,-114.071322,,,0,26
1208,4208,4208,NB Bonaventure DR @ 90 AV SE,,50.972705,-114.068562,,,0,38
1209,4209,4209,NB Bonaventure DR @ 86 AV SE,,50.976291,-114.06845,,,0,38
1210,4210,4210,WB 90 AV SE @ Fairmount DR SE,,50.972325,-114.059764,,,0,38
1211,4211,4211,WB Acadia DR @ Ancourt RD SE,,50.9723,-114.053941,,,0,38
1212,4212,4212,NB Acadia DR @ Maplecroft RD SE,,50.95833,-114.042179,,,0,38
1213,4213,4213,NB Acadia DR @ Mapleburn DR SE,,50.955279,-114.040678,,,0,38
1214,4214,4214,EB Willingdon BV @ Wilkes RD SE,,50.950408,-114.050784,,,0,38
1215,4215,4215,EB Willingdon BV @ Wilton PL SE,,50.950376,-114.046699,,,0,38
1216,4216,4216,NB Willingdon BV @ Willacy DR (E. Leg) SE,,50.950696,-114.044401,,,0,38
1217,4217,4217,SB Bonaventure DR @ 99 AV SE,,50.96022,-114.068935,,,0,38
1218,4218,4218,NB Braeside DR @ 104 AV SW,,50.959907,-114.103237,,,0,32
1219,4219,4219,NB Braeside DR @ 107 AV SW,,50.957581,-114.103025,,,0,32
1220,4220,4220,EB Braeside DR @ Brookpark DR SW,,50.954042,-114.108657,,,0,32
1221,4221,4221,EB Braeside DR @ Bracewood Dr SW,,50.954132,-114.111229,,,0,32
1222,4222,4222,EB Southland DR @  E. of Oakmoor WY SW,,50.961206,-114.121188,,,0,52
1223,4223,4223,SB Oakmoor WY @ Oakbury PL SW,,50.961574,-114.124441,,,0,15
1224,4224,4224,SB Oakmoor WY @ Oakmoor DR SW,,50.963076,-114.124818,,,0,15
1225,4225,4225,SB Oakfield DR @ Oakridge GA SW,,50.963281,-114.132426,,,0,15
1226,4226,4226,EB Oakwood DR @ Oakcliffe DR SW,,50.966173,-114.135182,,,0,15
1227,4227,4227,SB Oakwood DR @ 93 AV SW,,50.970239,-114.138835,,,0,15
1228,4228,4228,WB Oakwood DR @ Oakmount WY SW,,50.972062,-114.136515,,,0,15
1229,4229,4229,WB Oakwood DR @ Palliser DR SW,,50.97265,-114.134099,,,0,15
1230,4232,4232,WB 90 AV SW @ 16 ST SW,,50.972325,-114.101066,,,0,34
1231,4233,4233,WB 90 AV SW @ Bay Ridge DR,,50.97232,-114.109758,,,0,34
1232,4234,4234,WB 90 AV SW @ Bay Croft RD,,50.972439,-114.103326,,,0,34
1233,4235,4235,WB 90 AV SW @ 19 ST SW,,50.972332,-114.106994,,,0,34
1234,4236,4236,NB 14 ST SW @ 90 AV SW,,50.972813,-114.09484,,,0,32
1235,4237,4237,EB 90 AV SW @ W. of 16 ST SW,,50.972122,-114.102505,,,0,32
1236,4238,4238,EB 90 AV SW @ Bay Ridge DR,,50.972122,-114.108659,,,0,32
1237,4239,4239,EB 90 AV SW @ Bay View DR,,50.972137,-114.111094,,,0,32
1238,4240,4240,EB 90 AV SW @ 19 ST SW,,50.972139,-114.105738,,,0,32
1239,4243,4243,EB Oakwood DR @ Oakmount WY SW,,50.972152,-114.135412,,,0,39
1240,4244,4244,NB Oakwood DR @ Oakmount DR SW,,50.967807,-114.138959,,,0,39
1241,4245,4245,WB Oakwood DR @ Oakcliffe DR SW,,50.966361,-114.13621,,,0,39
1242,4246,4246,WB Oakmoor DR @ Oakmoor CR SW,,50.963208,-114.126533,,,0,39
1243,4247,4247,NB Oakmoor WY @ Oakbury PL SW,,50.962271,-114.124255,,,0,39
1244,4248,4248,WB Braeside DR @ Brabourne RD SW,,50.954255,-114.113286,,,0,37
1245,4249,4249,SB Braeside DR @ 107 AV SW,,50.956727,-114.10305,,,0,37
1246,4250,4250,WB Braeside DR @ Braxton RD SW,,50.954116,-114.105135,,,0,37
1247,4251,4251,SB Braeside DR @ 104 AV SW,,50.959229,-114.10345,,,0,37
1248,4252,4252,NB Bonaventure DR @ 99 AV SE,,50.961339,-114.068736,,,0,37
1249,4253,4253,NB Willingdon BV @ Fairmount DR SE,,50.953595,-114.059811,,,0,37
1250,4254,4254,WB Willingdon BV @ Wilderness DR SE,,50.952934,-114.057873,,,0,37
1251,4255,4255,WB  Willingdon BV @ Wilmer RD SE,,50.952436,-114.054501,,,0,37
1252,4256,4256,WB Willingdon BV @ Wilkes RD SE,,50.950915,-114.051649,,,0,37
1253,4257,4257,WB Willingdon BV @ Wilton PL SE,,50.950544,-114.046561,,,0,37
1254,4258,4258,WB Willingdon BV @ Acadia DR SE,,50.951805,-114.042009,,,0,37
1255,4259,4259,SB Acadia DR @ Williow Park DR SE,,50.959577,-114.043808,,,0,37
1256,4260,4260,EB Acadia DR @ Mapleton DR SE,,50.960866,-114.04639,,,0,37
1257,4261,4261,SB Acadia DR @ Maplecroft RD SE,,50.957839,-114.041939,,,0,37
1258,4262,4262,EB Acadia DR @ Fairmount DR SE,,50.972182,-114.058536,,,0,37
1259,4263,4263,EB Acadia DR @ Ancourt  RD SE,,50.972016,-114.052991,,,0,37
1260,4264,4264,EB 90 AV SE @ Bonaventure DR SE,,50.972189,-114.068081,,,0,37
1261,4265,4265,SB Bonaventure DR @ 86 AV SE,,50.975559,-114.068667,,,0,37
1262,4266,4266,SB Harvest Hills BV @ Country Hills BV NW,,51.152279,-114.06567,,,0,99
1263,4267,4267,NB Harvest Hills BV @ Harvest Oak DR NE,,51.152146,-114.06472,,,0,95
1264,4270,4270,SB Mclaurin ST @ University AV NW,,51.077132,-114.147634,,,0,96
1265,4271,4271,NB 9 ST NE @ McDougall RD,,51.050661,-114.040292,,,0,33
1266,4275,4275,WB 56 AV SE @ 58 AV SE,,51.002343,-113.988699,,,0,67
1267,4276,4276,EB Barlow TR @ 61 AV SE,,50.999117,-113.984303,,,0,67
1268,4280,4280,SB 37 ST SW @ 17 AV SW,,51.03734,-114.141392,,,0,58
1269,4281,4281,SB 37 ST SW @ 13 AV SW,,51.041258,-114.141265,,,0,58
1270,4282,4282,NB Bow TR SW @ Westbrook Mall Overpass,,51.043538,-114.138114,,,0,94
1271,4283,4283,SB Barlow TR @ 66 AV SE,,50.993797,-113.982068,,,0,71
1272,4284,4284,EB 57 AV SE @ 58 AV SE,,51.001725,-113.989138,,,0,71
1273,4285,4285,WB Dover Ridge Dr @ 26A St SE,,51.01879,-113.996902,,,0,107
1274,4286,4286,NB Harvest Hills BV @ Harvest Oak GA NE,,51.146209,-114.064003,,,0,95
1275,4287,4287,SB Harvest Hills BV @ Harvest Oak GA NE,,51.146524,-114.064376,,,0,99
1276,4291,4291,NB Panatella BV @ Panatella CR NW,,51.167736,-114.080597,,,0,38
1277,4292,4292,WB Panatella BV @ Panton LD NW,,51.170517,-114.082138,,,0,38
1278,4302,4302,SB Strathcona BV @ Strathcona DR SW,,51.046574,-114.186813,,,0,37
1279,4303,4303,EB Country Village RD @ Harvest Hills BV NE,,51.160256,-114.068774,,,0,83
1280,4304,4304,EB Panamount BV @ Panamount LN NW,,51.157111,-114.081984,,,0,102
1281,4305,4305,NB Panorama Hills DR @ Panamount GD NW,,51.156038,-114.084755,,,0,42
1282,4306,4306,NB Panorama Hills @ Panorama Hills RI NW,,51.153873,-114.085563,,,0,42
1283,4307,4307,WB Falconridge DR @ Falsbridge DR NE,,51.099658,-113.956003,,,0,60
1284,4308,4308,WB Falconridge DR @ Falworth RD NE,,51.098711,-113.951423,,,0,60
1285,4309,4309,WB Falconridge DR @ Falchurch RD NE,,51.099969,-113.944811,,,0,60
1286,4310,4310,WB Castleridge BV @ E. of 54 AV NE,,51.102218,-113.965864,,,0,60
1287,4311,4311,WB Castleridge BV @ 54 AV NE,,51.103657,-113.969161,,,0,60
1288,4312,4312,NB Panorama Hills DR @ Panorama Hills ME NW,,51.152172,-114.085556,,,0,42
1289,4313,4313,NB Panorama Hills DR @ Panorama Hills GA NW,,51.150272,-114.084017,,,0,42
1290,4314,4314,WB Panorama Hills DR @ Panorama Hills GR NW,,51.149209,-114.080034,,,0,42
1291,4315,4315,WB Panorama Hills DR @ Panorama Hills BV SW,,51.15074,-114.076465,,,0,42
1292,4316,4316,SB Panorama Hills BV @ Panorama Hills MR NW,,51.152857,-114.077289,,,0,42
1293,4317,4317,SB Country Hills BV @ Panorama Hills WY NW,,51.151081,-114.069621,,,0,8
1294,4318,4318,NB Country Hills BV @ Country Hills DR NW,,51.151698,-114.068381,,,0,10
1295,4319,4319,WB Country Hills BV @ Country Hills DR NW,,51.147498,-114.078114,,,0,8
1296,4320,4320,WB Maryvale DR @ 50 ST NE,,51.056511,-113.963674,,,0,35
1297,4321,4321,WB Maryvale DR @ Maryvale WY NE,,51.056686,-113.967988,,,0,35
1298,4322,4322,NB 52 ST & 4 AV NE,,51.055653,-113.95657,,,0,103
1299,4323,4323,WB 4 AV NE @ Maidstone DR,,51.057182,-113.949729,,,0,35
1300,4324,4324,WB 4 AV NE @ Maddock DR,,51.055816,-113.944966,,,0,35
1301,4325,4325,EB 4 AV NE @ 59 ST NE,,51.055983,-113.946182,,,0,37
1302,4326,4326,EB 4 AV NE @ 55 ST NE,,51.057096,-113.950248,,,0,37
1303,4327,4327,EB 4 AV NE @ Maidstone DR,,51.056922,-113.952871,,,0,28
1304,4328,4328,EB Maryvale DR @ W. of 50 ST NE,,51.056418,-113.963895,,,0,37
1305,4329,4329,EB Maryvale DR @ Maryvale WY NE,,51.056672,-113.966775,,,0,37
1306,4330,4330,EB Maryvale DR @ 42 ST NE,,51.056099,-113.969967,,,0,37
1307,4331,4331,WB Madigan DR @ Madeira DR NE,,51.062412,-113.954366,,,0,57
1308,4332,4332,WB Madigan DR @ Manora HL NE,,51.063041,-113.949857,,,0,57
1309,4333,4333,NB Madigan DR @ Maitland DR NE,,51.061615,-113.940401,,,0,57
1310,4335,4335,EB 8 AV SE @ 52 ST SE,,51.04508,-113.960284,,,0,57
1311,4336,4336,EB 8 AV SE @ 47 ST SE,,51.045082,-113.965221,,,0,57
1312,4337,4337,WB 26 AV NE @ Rundleson RD,,51.077947,-113.978634,,,0,58
1313,4338,4338,WB 26 AV NE @ Rundlehill DR,,51.078183,-113.97038,,,0,58
1314,4339,4339,WB 26 AV NE @ 48 ST NE,,51.077057,-113.965099,,,0,58
1315,4340,4340,WB 26 AV NE @ 50 ST NE,,51.076353,-113.961918,,,0,58
1316,4341,4341,WB 28 AV NE @ Pineland RD,,51.078071,-113.945013,,,0,58
1317,4342,4342,EB Rundlehorn DR @ Pinepoint DR NE,,51.071475,-113.946985,,,0,58
1318,4343,4343,EB Rundlehorn DR @ 50 ST NE,,51.071556,-113.96079,,,0,58
1319,4344,4344,EB Rundlehorn DR @ Rundlewood DR NE,,51.070576,-113.969435,,,0,58
1320,4345,4345,EB Rundlehorn DR @ 40 ST NE,,51.070738,-113.974293,,,0,58
1321,4346,4346,WB Panatella BV @ Panton VW NW,,51.170304,-114.084644,,,0,38
1322,4347,4347,WB Panatella BV @ Panatella HL NW,,51.168859,-114.088258,,,0,38
1323,4348,4348,SB Coventry Hills WY @ Covemeadow RD NE,,51.168464,-114.062625,,,0,48
1324,4350,4350,WB 14 AV SE @ 47 ST SE,,51.040991,-113.966302,,,0,37
1325,4351,4351,WB 14 AV SE @ 49 ST SE,,51.040988,-113.963434,,,0,37
1326,4352,4352,EB 17th AV SE @ 61st ST SE,,51.037745,-113.942165,,,0,102
1327,4356,4356,WB Marlborough DR @ Marlborough WY NE,,51.059595,-113.975762,,,0,35
1328,4358,4358,WB Memorial DR @ 47 ST NE,,51.052993,-113.964333,,,0,38
1329,4359,4359,WB Memorial DR @ 59 ST NE,,51.053451,-113.94946,,,0,38
1330,4360,4360,SB Abbeydale DR @ 4 AV NE,,51.05468,-113.931154,,,0,99
1331,4361,4361,WB Memorial DR @ Abbeydale DR NE,,51.052561,-113.931993,,,0,99
1332,4362,4362,WB Memorial DR @ 68 ST NE,,51.052522,-113.935977,,,0,99
