,stop_id,stop_code,stop_name,stop_desc,stop_lat,stop_lon,zone_id,stop_url,location_type,parent_station,wheelchair_boarding,count
0,2999,100694,Central at St Patrick,,48.416662,-123.311572,,,0,,2,73
1,2941,100633,Central at Monterey,,48.416657,-123.315262,,,0,,2,37
2,2901,100591,Victoria at Central,,48.417087,-123.317866,,,0,,2,37
3,2899,100589,Victoria at Pentland,,48.419569,-123.317732,,,0,,2,37
4,2864,100552,McNeill at Falkland,,48.420328,-123.320491,,,0,,2,5
5,2818,100504,McNeill at Foul Bay,,48.42037,-123.322944,,,0,,2,5
6,2792,100475,Foul Bay at Romney,,48.418801,-123.324583,,,0,,2,81
7,2714,100393,Richardson at Gonzales,,48.418354,-123.330082,,,0,,2,5
8,2678,100357,Richardson at Richmond,,48.417557,-123.331826,,,0,,2,5
9,2608,100284,Richardson at St Charles,,48.416244,-123.338068,,,0,,2,5
10,2569,100244,Richardson at Arnold,,48.416427,-123.341412,,,0,,2,5
11,2528,100202,Richardson at Kipling,,48.416751,-123.344371,,,0,,2,5
12,2500,100174,Richardson at Moss,,48.418867,-123.347129,,,0,,2,5
13,2466,100138,Richardson at Linden,,48.419358,-123.351853,,,0,,2,5
14,2428,100094,Richardson at Cook,,48.419742,-123.355459,,,0,,2,5
15,2413,100075,Richardson at Vancouver,,48.419964,-123.357486,,,0,,2,5
16,2402,100062,Vancouver at Collinson,,48.418887,-123.35822,,,0,,2,5
17,2377,100035,Fairfield at Quadra,,48.420212,-123.360755,,,0,,2,50
18,2355,100010,Douglas at Courtney - Conference Ctr,,48.422745,-123.365751,,,0,,2,462
19,2374,100032,Douglas at Fort,,48.424372,-123.36532,,,0,,2,543
20,2403,100063,Johnson at Douglas,,48.427055,-123.363976,,,0,,2,203
21,2380,100039,Fairfield at Quadra,,48.420187,-123.361008,,,0,,2,49
22,2397,100056,Fairfield at Vancouver,,48.418365,-123.358659,,,0,,2,49
23,2433,100100,Cook at Fairfield,,48.418356,-123.355192,,,0,,2,35
24,2439,100109,Richardson at Cook,,48.419525,-123.354439,,,0,,2,4
25,2467,100139,Richardson at Linden,,48.419174,-123.351184,,,0,,2,4
26,2493,100167,Richardson at Moss,,48.418777,-123.347578,,,0,,2,4
27,2525,100199,Richardson at Kipling,,48.416621,-123.344415,,,0,,2,4
28,2574,100249,Richardson at Stannard,,48.416189,-123.340433,,,0,,2,4
29,2617,100293,Richardson at St Charles,,48.41617,-123.337102,,,0,,2,4
30,2696,100375,Richardson at Richmond,,48.417687,-123.330934,,,0,,2,4
31,2745,100425,Richardson at Lawndale,,48.419518,-123.327641,,,0,,2,4
32,2814,100500,McNeill at Foul Bay,,48.420237,-123.322808,,,0,,2,4
33,2869,100558,McNeill at Falkland,,48.420173,-123.319446,,,0,,2,4
34,2893,100583,Victoria at McNeill,,48.42061,-123.31835,,,0,,2,36
35,2892,100582,Victoria at Windsor,,48.421785,-123.318414,,,0,,2,36
36,2937,100629,Windsor at Hampshire,,48.421983,-123.315626,,,0,,2,36
37,2962,100654,Windsor at Monterey,,48.421968,-123.313899,,,0,,2,36
38,2995,100690,Windsor at St Patrick,,48.421947,-123.311388,,,0,,2,36
39,3020,100715,Windsor at Transit,,48.421933,-123.309428,,,0,,2,36
40,3069,100765,Newport at Windsor - Windsor Park,,48.4233,-123.306243,,,0,,2,36
41,3092,100788,Newport at Orchard,,48.421627,-123.30401,,,0,,2,36
42,3100,100796,Newport at Margate,,48.420419,-123.303297,,,0,,2,36
43,3095,100791,"Newport, 840 block",,48.418297,-123.303814,,,0,,2,36
44,3090,100786,Central at Newport,,48.416494,-123.304258,,,0,,2,36
45,3068,100764,Central at Byng,,48.416552,-123.306332,,,0,,2,36
46,3026,100721,Central at Transit,,48.416636,-123.309236,,,0,,2,36
47,2440,100110,Dallas at Simcoe,,48.421122,-123.385532,,,0,,2,117
48,2441,100111,Dallas at Niagara,,48.418635,-123.385404,,,0,,2,60
49,2445,100116,Dallas at Montreal,,48.416637,-123.385092,,,0,,2,60
50,2423,100089,Oswego at Dallas,,48.414509,-123.381677,,,0,,2,60
51,2385,100044,Oswego at St James,,48.417064,-123.378957,,,0,,2,60
52,2372,100030,Oswego at Michigan,,48.418745,-123.377128,,,0,,2,60
53,2365,100021,Superior at Oswego,,48.419398,-123.376049,,,0,,2,60
54,2356,100011,Menzies at Superior,,48.417847,-123.37265,,,0,,2,90
55,2366,100022,Menzies at Michigan,,48.416611,-123.373348,,,0,,2,90
56,2378,100036,Menzies at Simcoe,,48.414966,-123.374486,,,0,,2,90
57,2393,100052,Niagara at Menzies,,48.413576,-123.375286,,,0,,2,90
58,2398,100058,Niagara at Clarence,,48.412821,-123.373666,,,0,,2,90
59,2410,100072,Niagara at Government,,48.411934,-123.371807,,,0,,2,90
60,2424,100090,Niagara at Douglas,,48.410632,-123.36899,,,0,,2,90
61,2418,100080,Douglas at Beacon - Beacon Hill Park,,48.411968,-123.368022,,,0,,2,90
62,2379,100037,Douglas at Avalon,,48.414875,-123.366307,,,0,,2,90
63,2357,100012,"Douglas at Blanshard, Royal BC Museum",,48.419228,-123.365886,,,0,,2,289
64,2376,100034,Douglas at Fort,,48.424963,-123.365354,,,0,,2,484
65,2364,100019,Douglas at Courtney - Conference Ctr,,48.422735,-123.365966,,,0,,2,385
66,3255,100954,Douglas at Superior,,48.417802,-123.3658,,,0,,2,80
67,2387,100046,Douglas at Avalon,,48.41358,-123.367281,,,0,,2,80
68,2416,100078,Douglas at Beacon - Beacon Hill Park,,48.411257,-123.368587,,,0,,2,103
69,2405,100065,Niagara at Government,,48.412243,-123.372112,,,0,,2,80
70,2395,100054,Niagara at Clarence,,48.412992,-123.373751,,,0,,2,80
71,2390,100049,Niagara at Menzies,,48.413688,-123.375228,,,0,,2,80
72,2373,100031,Menzies at Simcoe,,48.415557,-123.37371,,,0,,2,80
73,2358,100013,Menzies at Michigan,,48.417173,-123.372823,,,0,,2,80
74,2353,100008,Superior at Menzies,,48.418267,-123.372816,,,0,,2,57
75,3208,100905,Superior at Oswego,,48.419766,-123.376596,,,0,,2,57
76,3247,100946,Superior at Montreal,,48.421153,-123.379469,,,0,,2,57
77,2422,100086,Erie at Dallas - Fisherman's Wharf,,48.421585,-123.383306,,,0,,2,57
78,3061,100757,Newport at Windsor,,48.423843,-123.306701,,,0,,2,56
79,3038,100734,Newport at Beresford,,48.425428,-123.308872,,,0,,2,56
80,3006,100701,Oak Bay at York,,48.426475,-123.311408,,,0,,2,56
81,2940,100632,Oak Bay at Hampshire,,48.426567,-123.315729,,,0,,2,80
82,2884,100574,Oak Bay at Elgin,,48.426588,-123.319619,,,0,,2,80
83,2825,100512,Oak Bay at Amphion,,48.426516,-123.323311,,,0,,2,80
84,2776,100458,Oak Bay at Davie,,48.426528,-123.326546,,,0,,2,80
85,2727,100406,Oak Bay at Richmond,,48.426534,-123.330657,,,0,,2,80
86,2703,100382,Oak Bay at Belcher,,48.426546,-123.3328,,,0,,2,80
87,2641,100317,Oak Bay at Fort - Oak Bay Junction,,48.426563,-123.336294,,,0,,2,56
88,2573,100248,Pandora at Johnson,,48.4268,-123.34216,,,0,,2,56
89,2535,100209,Pandora at Fernwood,,48.426924,-123.345877,,,0,,2,152
90,2495,100169,Pandora at Chambers,,48.427141,-123.350068,,,0,,2,152
91,2476,100150,Pandora at Cook,,48.427255,-123.353846,,,0,,2,154
92,2457,100129,Pandora at Quadra,,48.427532,-123.358167,,,0,,2,154
93,2420,100084,Pandora at Blanshard,,48.427906,-123.362465,,,0,,2,154
94,2417,100079,Johnson at Blanshard,,48.426729,-123.361265,,,0,,2,190
95,2427,100093,Johnson at Quadra,,48.426465,-123.358619,,,0,,2,190
96,2453,100125,Johnson at Vancouver,,48.426176,-123.355914,,,0,,2,190
97,2485,100159,Johnson at Chambers,,48.425591,-123.350238,,,0,,2,145
98,2507,100181,Johnson at Camosun,,48.425464,-123.347877,,,0,,2,145
99,2537,100211,Johnson at Fernwood,,48.425401,-123.344991,,,0,,2,145
100,2554,100228,Johnson at Stanley,,48.425851,-123.34319,,,0,,2,56
101,2586,100262,Pandora at Elford,,48.426573,-123.340847,,,0,,2,56
102,2620,100296,Pandora at Fort - Oak Bay Junction,,48.426476,-123.337817,,,0,,2,56
103,2636,100312,Oak Bay at McGregor,,48.426478,-123.335991,,,0,,2,56
104,2682,100361,Oak Bay at Jubilee,,48.4264,-123.331915,,,0,,2,56
105,2718,100397,Oak Bay at Richmond,,48.426392,-123.329884,,,0,,2,82
106,2771,100453,Oak Bay at Chamberlain,,48.426394,-123.326742,,,0,,2,82
107,2816,100502,Oak Bay at Amphion,,48.426383,-123.324021,,,0,,2,82
108,2848,100536,Oak Bay at Foul Bay,,48.426399,-123.321773,,,0,,2,82
109,2898,100588,Oak Bay at Yale,,48.42645,-123.318562,,,0,,2,82
110,2930,100622,Oak Bay at Wilmot,,48.426453,-123.317032,,,0,,2,82
111,2965,100657,Oak Bay at Monterey,,48.426413,-123.314595,,,0,,2,82
112,2991,100686,Oak Bay at Oliver,,48.426365,-123.312319,,,0,,2,58
113,3019,100714,Newport at St David,,48.42595,-123.309965,,,0,,2,58
114,3046,100742,Newport at Transit,,48.424619,-123.308048,,,0,,2,58
115,4661,103741,Royal Jubilee Hospital,,48.433681,-123.32788,,,0,,2,107
116,2828,100515,Fort at Lee,,48.431565,-123.325101,,,0,,2,89
117,2870,100559,Foul Bay at Cadboro Bay / Fort,,48.431763,-123.32255,,,0,,2,76
118,2862,100550,Foul Bay at Meadow,,48.429952,-123.322632,,,0,,2,76
119,2845,100533,Foul Bay at Leighton,,48.428576,-123.322746,,,0,,2,76
120,2829,100517,Foul Bay at Oak Bay,,48.426204,-123.322835,,,0,,2,76
121,2824,100511,Foul Bay at Edgecliffe,,48.42226,-123.322516,,,0,,2,76
122,2804,100489,Foul Bay at Richardson/McNeill,,48.42053,-123.323473,,,0,,2,76
123,2751,100432,Foul Bay at Fairfield,,48.415764,-123.327682,,,0,,2,76
124,3284,100983,Foul Bay at Beaven,,48.414251,-123.327945,,,0,,2,31
125,2778,100460,Crescent at Foul Bay,,48.412093,-123.327095,,,0,,2,31
126,2731,100410,Crescent at Richmond,,48.411744,-123.330644,,,0,,2,31
127,2681,100360,Ross at Wildwood,,48.410926,-123.334253,,,0,,2,31
128,2656,100332,Ross at St Charles,,48.410949,-123.335965,,,0,,2,31
129,2627,100303,Fairfield at St Charles,,48.412282,-123.337673,,,0,,2,76
130,2593,100269,Fairfield at Arnold,,48.412071,-123.341051,,,0,,2,76
131,2564,100238,Memorial at May,,48.411548,-123.343872,,,0,,2,35
132,118763,102111,May at Eberts,,48.411002,-123.345737,,,0,,2,35
133,2558,100232,Eberts at Bushby,,48.409114,-123.346686,,,0,,2,6
134,2556,100230,Bushby at Joseph,,48.408362,-123.347882,,,0,,2,6
135,2539,100213,George at Moss,,48.408181,-123.350315,,,0,,2,6
136,2547,100221,Moss at Point,,48.406353,-123.351137,,,0,,2,6
137,2518,100192,Dallas at Wellington,,48.407174,-123.353682,,,0,,2,6
138,2494,100168,Linden at Faithful,,48.40976,-123.353813,,,0,,2,6
139,2481,100155,May at Linden,,48.411883,-123.353729,,,0,,2,35
140,2458,100130,May at Cook,,48.412254,-123.357093,,,0,,2,35
141,2448,100120,Cook at Sutlej,,48.414375,-123.356486,,,0,,2,35
142,2443,100113,Cook at Southgate,,48.416135,-123.355719,,,0,,2,35
143,2436,100105,Cook at Richardson,,48.419863,-123.354826,,,0,,2,31
144,2449,100121,Cook at Rockland,,48.422313,-123.354201,,,0,,2,31
145,2456,100128,Cook at Fort,,48.423611,-123.353918,,,0,,2,31
146,2455,100127,Yates at Cook,,48.425252,-123.354719,,,0,,2,301
147,2437,100106,Yates at Vancouver,,48.425508,-123.35716,,,0,,2,234
148,2406,100068,Yates at Quadra,,48.425853,-123.360444,,,0,,2,396
149,2351,100004,Superior at Gov't - Legislature Terminal,,48.418298,-123.369365,,,0,,2,60
150,2375,100033,Fort at Douglas,,48.424501,-123.364585,,,0,,2,351
151,2386,100045,Fort at Blanshard,,48.424173,-123.361833,,,0,,2,284
152,2404,100064,Fort at Quadra,,48.423887,-123.359217,,,0,,2,253
153,2450,100122,Cook at Meares,,48.423086,-123.354221,,,0,,2,31
154,2442,100112,Cook at Rockland,,48.421887,-123.354519,,,0,,2,31
155,2430,100096,Cook at Richardson,,48.419428,-123.355138,,,0,,2,31
156,2429,100095,Cook at Fairfield,,48.418255,-123.355406,,,0,,2,31
157,2435,100102,Cook at Southgate,,48.416048,-123.355972,,,0,,2,37
158,2446,100117,Cook at Oxford,,48.414008,-123.356894,,,0,,2,37
159,2459,100131,May at Cook,,48.412125,-123.356952,,,0,,2,37
160,2482,100156,May at Linden,,48.411808,-123.353998,,,0,,2,37
161,2489,100163,May at Wellington,,48.411546,-123.351563,,,0,,2,37
162,2516,100190,May at Moss,,48.411307,-123.349425,,,0,,2,37
163,2527,100201,May at Joseph,,48.411136,-123.347854,,,0,,2,37
164,2548,100222,May at Eberts,,48.410912,-123.345851,,,0,,2,37
165,2568,100243,Memorial at Fairfield,,48.411822,-123.343448,,,0,,2,37
166,2603,100279,Fairfield at Stannard,,48.412254,-123.339687,,,0,,2,76
167,2637,100313,Fairfield at St Charles,,48.412169,-123.336848,,,0,,2,76
168,2658,100335,Ross at St Charles,,48.410803,-123.335868,,,0,,2,31
169,2698,100377,Ross at Wildwood,,48.410801,-123.333616,,,0,,2,31
170,2733,100412,Crescent at Richmond,,48.411669,-123.33051,,,0,,2,31
171,2798,100482,Crescent at Foul Bay,,48.412153,-123.328068,,,0,,2,31
172,2757,100439,Foul Bay at Quixote,,48.414246,-123.327718,,,0,,2,31
173,2794,100477,Foul Bay at Runnymede,,48.418998,-123.324101,,,0,,2,76
174,2808,100493,Foul Bay at McNeill/Richardson,,48.4206,-123.323329,,,0,,2,76
175,2834,100522,Foul Bay at Granite,,48.425393,-123.322313,,,0,,2,76
176,2858,100546,Foul Bay at Milton,,48.429218,-123.322524,,,0,,2,76
177,2867,100556,Foul Bay at Goldsmith,,48.430781,-123.322388,,,0,,2,76
178,2871,100561,Fort at Foul Bay,,48.432153,-123.322926,,,0,,2,156
179,2812,100498,Fort at Lee,,48.43146,-123.326165,,,0,,2,112
180,2756,100438,Fort at Richmond,,48.429903,-123.329575,,,0,,2,179
181,2769,100451,Richmond at Denman,,48.431975,-123.329411,,,0,,2,143
182,2526,100200,May at Olive,,48.411258,-123.348052,,,0,,2,29
183,2510,100184,May at Moss,,48.411499,-123.350128,,,0,,2,29
184,2833,100521,Crescent at King George,,48.410652,-123.323918,,,0,,2,44
185,2859,100547,Quimper Loop,,48.408916,-123.323402,,,0,,2,44
186,2754,100436,Foul Bay at Fairfield,,48.41586,-123.327487,,,0,,2,67
187,2368,100025,Fairfield at Blanshard - Bay A,,48.421886,-123.364085,,,0,,2,219
188,2414,100076,Douglas at Pandora - City Hall,,48.427714,-123.364464,,,0,,2,341
189,2715,100394,Douglas at Herald / Fisgard,,48.429958,-123.364397,,,0,,2,377
190,2472,100146,Douglas at Discovery,,48.432177,-123.364488,,,0,,2,474
191,2504,100178,Douglas at Field (Bay St.),,48.434688,-123.36477,,,0,,2,377
192,2524,100198,Douglas at Kings,,48.437073,-123.366107,,,0,,2,416
193,4269,102012,Hillside at Douglas,,48.438496,-123.365523,,,0,,2,68
194,2563,100237,Hillside at Blanshard,,48.438968,-123.362406,,,0,,2,68
195,2590,100266,Hillside at Quadra,,48.439481,-123.358182,,,0,,2,68
196,2604,100280,Hillside at Graham,,48.439777,-123.356029,,,0,,2,68
197,2625,100301,Hillside at Blackwood,,48.440102,-123.353483,,,0,,2,68
198,2646,100322,Hillside at Cook,,48.440415,-123.351205,,,0,,2,68
199,2660,100337,Hillside at Higgins,,48.440841,-123.348779,,,0,,2,68
200,2706,100385,Hillside at Cedar Hill,,48.441036,-123.345454,,,0,,2,68
201,2760,100442,Hillside at Gosworth,,48.442269,-123.341669,,,0,,2,68
202,2827,100514,Hillside at Doncaster,,48.443841,-123.337704,,,0,,2,68
203,2876,100566,Hillside at Shakespeare - Hillside Ctr.,,48.444817,-123.335207,,,0,,2,68
204,2926,100618,Hillside at Shelbourne,,48.445836,-123.332646,,,0,,2,94
205,2961,100653,Lansdowne at Richmond,,48.446074,-123.32785,,,0,,2,68
206,3067,100763,Camosun College main entrance,,48.448,-123.320356,,,0,,2,180
207,3131,100827,Foul Bay at University Woods,,48.449544,-123.318019,,,0,,2,113
208,3167,100864,Henderson at Dundrum,,48.451296,-123.316008,,,0,,2,113
209,3216,100913,Henderson at Kendal,,48.453544,-123.314867,,,0,,2,180
210,3238,100937,Henderson at Avondale,,48.455456,-123.314264,,,0,,2,113
211,3252,100951,Henderson at Frederick Norris,,48.457909,-123.315693,,,0,,2,113
212,2409,100071,University Dr at Ring Rd,,48.459773,-123.314519,,,0,,2,245
213,3336,101036,Ring Rd. at Parking Lot '1',,48.461773,-123.308363,,,0,,2,245
214,4630,102420,UVic Exchange,,48.466013,-123.308641,,,0,,2,198
215,3375,101076,UVic Exchange,,48.465978,-123.309529,,,0,,2,70
216,3312,101011,Ring Rd. at McGill,,48.463693,-123.316353,,,0,,2,180
217,3292,100991,Ring Rd. at Parking Lot '6',,48.461922,-123.316057,,,0,,2,247
218,3251,100950,Henderson at Frederick Norris,,48.457786,-123.315866,,,0,,2,113
219,3235,100932,Henderson at Avondale,,48.455291,-123.314414,,,0,,2,113
220,3200,100897,Henderson at Kendal,,48.452665,-123.315513,,,0,,2,180
221,3130,100826,Foul Bay at University Woods,,48.449707,-123.317973,,,0,,2,113
222,3056,100752,Camosun College main entrance,,48.447463,-123.321384,,,0,,2,180
223,2985,100680,Lansdowne at Richmond,,48.446213,-123.327576,,,0,,2,92
224,2949,100641,Lansdowne at Aldridge,,48.446251,-123.330526,,,0,,2,92
225,2904,100595,Hillside at Shelbourne - Hillside Ctr.,,48.445334,-123.334476,,,0,,2,68
226,2819,100505,Hillside at Doncaster,,48.44357,-123.338822,,,0,,2,68
227,2766,100448,Hillside at Gosworth,,48.442396,-123.341765,,,0,,2,68
228,2717,100396,Hillside at Cedar Hill,,48.441255,-123.344702,,,0,,2,68
229,2659,100336,Hillside at Higgins,,48.440833,-123.349735,,,0,,2,68
230,2635,100311,Hillside at Cook,,48.440347,-123.352553,,,0,,2,68
231,2622,100298,Hillside at Blackwood,,48.440127,-123.354338,,,0,,2,68
232,2602,100278,Hillside at Graham,,48.4398,-123.356828,,,0,,2,68
233,2585,100261,Hillside at Quadra,,48.439457,-123.359757,,,0,,2,68
234,2546,100220,Hillside at Douglas,,48.438596,-123.365801,,,0,,2,68
235,2503,100177,Douglas at Bay St.,,48.435296,-123.365334,,,0,,2,381
236,2460,100132,Douglas at Discovery,,48.432163,-123.364702,,,0,,2,477
237,2419,100082,Douglas at Pandora - City Hall,,48.428681,-123.364584,,,0,,2,477
238,2383,100042,Douglas at View,,48.425546,-123.365181,,,0,,2,440
239,2362,100017,Burdett at Douglas,,48.42205,-123.365463,,,0,,2,209
240,2549,100223,Gorge at Government / Douglas,,48.438748,-123.368215,,,0,,2,60
241,2975,100669,Monterey at Woodlawn,,48.428505,-123.313928,,,0,,2,24
242,3025,100720,St Ann at Cranmore,,48.431523,-123.311683,,,0,,2,24
243,3049,100745,St Ann at Bowker,,48.432986,-123.31073,,,0,,2,24
244,33186,100510,Bowker at Monteith,,48.432417,-123.308415,,,0,,2,24
245,3091,100787,Beach at Bowker,,48.432391,-123.306497,,,0,,2,24
246,3118,100814,Beach at Dalhousie,,48.434383,-123.304998,,,0,,2,24
247,3151,100847,Estevan at Beach,,48.436332,-123.304027,,,0,,2,24
248,3125,100821,Estevan at Dunlevy,,48.437336,-123.306965,,,0,,2,24
249,3111,100807,Thompson at Musgrave,,48.438137,-123.308475,,,0,,2,24
250,3112,100808,Mayhew at Dufferin,,48.439841,-123.309355,,,0,,2,24
251,3106,100802,Musgrave at Thompson,,48.438125,-123.308107,,,0,,2,48
252,3119,100815,Estevan at Dunlevy,,48.437181,-123.3069,,,0,,2,24
253,3142,100838,Estevan at Lincoln,,48.436371,-123.304494,,,0,,2,24
254,3105,100801,Beach at Dalhousie,,48.433585,-123.305868,,,0,,2,24
255,3087,100783,Beach at Bowker,,48.432173,-123.306858,,,0,,2,24
256,3052,100748,Bowker at Lulie,,48.433076,-123.310133,,,0,,2,24
257,3013,100708,St Ann at Cranmore,,48.431054,-123.312192,,,0,,2,24
258,2979,100674,Monterey at Woodlawn,,48.428489,-123.314129,,,0,,2,24
259,3703,101414,Royal Oak Exch / Commonwealth Place,,48.499014,-123.388922,,,0,,2,88
260,3670,101381,Royal Oak at Falaise Dr - Broadmead Vlg,,48.498045,-123.380602,,,0,,2,88
261,3660,101370,Royal Oak Dr. at Chatterton,,48.497495,-123.377643,,,0,,2,68
262,3652,101362,Royal Oak Dr. at Royal Oak Av.,,48.497505,-123.372952,,,0,,2,68
263,3671,101382,Royal Oak at Tanglewood,,48.498463,-123.369546,,,0,,2,68
264,3693,101404,Emily Carr at Carolwood,,48.499211,-123.366838,,,0,,2,24
265,3646,101356,Emily Carr at Rithetwood,,48.496998,-123.366478,,,0,,2,24
266,3613,101323,Emily Carr at Lohbrunner Rd W,,48.494041,-123.368346,,,0,,2,24
267,3588,101297,Emily Carr at Thistlewood,,48.49241,-123.372274,,,0,,2,24
268,3533,101242,Emily Carr at Parkwood,,48.489626,-123.372958,,,0,,2,24
269,3517,101225,Emily Carr at Crownwood,,48.488339,-123.377766,,,0,,2,24
270,3490,101197,Emily Carr at Maltwood,,48.487019,-123.38126,,,0,,2,24
271,3460,101164,Quadra at Chatterton,,48.485276,-123.381812,,,0,,2,95
272,3436,101140,Quadra at Caen,,48.484049,-123.380293,,,0,,2,95
273,3383,101086,Quadra at Beckwith,,48.481182,-123.378229,,,0,,2,95
274,3328,101027,Quadra at Rogers,,48.477778,-123.375417,,,0,,2,95
275,3301,101000,Quadra at Ambassador,,48.475816,-123.373002,,,0,,2,95
276,3275,100974,Quadra at Saanich,,48.473289,-123.370379,,,0,,2,95
277,3228,100925,Quadra at McKenzie,,48.470481,-123.365475,,,0,,2,95
278,3188,100885,Quadra at Greenridge,,48.468456,-123.363458,,,0,,2,95
279,3132,100828,Quadra at Hulford,,48.465693,-123.361199,,,0,,2,95
280,3075,100771,Quadra at Lodge,,48.462476,-123.359992,,,0,,2,95
281,3018,100713,Quadra at Rock,,48.459958,-123.360555,,,0,,2,95
282,2955,100647,Quadra at Tattersall Dr,,48.45786,-123.360034,,,0,,2,95
283,2922,100614,Quadra at Cook,,48.455196,-123.359771,,,0,,2,95
284,2832,100520,Quadra at Inverness,,48.45154,-123.361085,,,0,,2,95
285,2763,100445,Quadra at Tolmie,,48.448754,-123.361953,,,0,,2,95
286,2710,100389,Quadra at Finlayson,,48.445958,-123.361179,,,0,,2,95
287,2657,100333,Quadra at Summit,,48.443652,-123.360495,,,0,,2,95
288,2628,100304,Quadra at Topaz,,48.442072,-123.360042,,,0,,2,95
289,2581,100257,Quadra at Hillside,,48.43911,-123.35921,,,0,,2,95
290,2559,100233,Quadra at Kings,,48.437672,-123.35881,,,0,,2,95
291,2519,100193,Quadra at Bay,,48.435029,-123.358161,,,0,,2,95
292,2492,100166,Quadra at Princess - Crystal Pool,,48.43283,-123.358458,,,0,,2,95
293,2471,100145,Quadra at Caledonia,,48.430537,-123.358762,,,0,,2,95
294,2463,100135,Quadra at North Park,,48.429616,-123.358904,,,0,,2,95
295,2434,100101,Quadra at Pandora,,48.427277,-123.359052,,,0,,2,95
296,2407,100069,Quadra at View,,48.424425,-123.35951,,,0,,2,98
297,2421,100085,Quadra at Johnson,,48.42615,-123.359077,,,0,,2,98
298,2447,100118,Quadra at Mason,,48.427888,-123.358906,,,0,,2,98
299,2461,100133,Quadra at Balmoral,,48.429235,-123.358728,,,0,,2,98
300,2473,100147,Quadra at Caledonia,,48.430589,-123.358542,,,0,,2,98
301,2497,100171,Quadra at Princess - Crystal Pool,,48.4332,-123.358187,,,0,,2,98
302,2534,100208,Quadra at Bay,,48.435577,-123.357996,,,0,,2,98
303,2560,100234,Quadra at Kings,,48.437908,-123.358627,,,0,,2,98
304,2595,100271,Quadra at Hillside,,48.44006,-123.359255,,,0,,2,99
305,2639,100315,Quadra at Topaz,,48.442869,-123.360068,,,0,,2,99
306,2666,100344,Quadra at Spruce,,48.444255,-123.360461,,,0,,2,99
307,2722,100401,Quadra at Finlayson,,48.446829,-123.361186,,,0,,2,99
308,2773,100455,Quadra at Tolmie,,48.449319,-123.361707,,,0,,2,99
309,2852,100540,Quadra at Holmes,,48.452321,-123.360601,,,0,,2,99
310,2908,100599,Quadra at Cook / Cloverdale,,48.454338,-123.359879,,,0,,2,99
311,2963,100655,Quadra at Tattersall Dr,,48.45827,-123.359877,,,0,,2,99
312,3050,100746,Quadra at Rock,,48.460466,-123.360477,,,0,,2,99
313,3086,100782,Quadra at Lodge,,48.463094,-123.359508,,,0,,2,99
314,3156,100853,Quadra at Reynolds,,48.466817,-123.361911,,,0,,2,120
315,3198,100895,Quadra at Greenridge,,48.468744,-123.363427,,,0,,2,120
316,3226,100923,Quadra at McKenzie,,48.470453,-123.365055,,,0,,2,99
317,3278,100977,Quadra at Saanich,,48.473399,-123.370266,,,0,,2,99
318,3305,101004,Quadra at Ambassador,,48.476504,-123.373612,,,0,,2,99
319,3335,101034,Quadra at Rogers,,48.478428,-123.375977,,,0,,2,99
320,3386,101089,Quadra at Beckwith,,48.481381,-123.378133,,,0,,2,99
321,3442,101146,Quadra at Caen,,48.484493,-123.380562,,,0,,2,99
322,3462,101166,Quadra at Chatterton,,48.48576,-123.382128,,,0,,2,99
323,3482,101188,Emily Carr at Maltwood,,48.486906,-123.381093,,,0,,2,26
324,3514,101221,Emily Carr at Crownwood,,48.488348,-123.376468,,,0,,2,26
325,3534,101243,Emily Carr at Parkwood,,48.489566,-123.37277,,,0,,2,26
326,3591,101300,Emily Carr at Owlwood,,48.492668,-123.371089,,,0,,2,26
327,3611,101321,Emily Carr at Shadywood,,48.494416,-123.367939,,,0,,2,26
328,3673,101384,Emily Carr at Carolwood,,48.498441,-123.366084,,,0,,2,26
329,3682,101393,Royal Oak at Tanglewood,,48.498697,-123.369368,,,0,,2,73
330,3662,101372,Royal Oak Dr. at Royal Oak Av.,,48.497738,-123.373954,,,0,,2,73
331,3691,101402,Royal Oak at Falaise Dr - Broadmead Vlg,,48.498713,-123.382136,,,0,,2,94
332,11228,101922,Royal Oak Exchange,,48.498654,-123.388533,,,0,,2,49
333,3719,101430,Royal Oak Exch - Commonwealth Place,,48.498481,-123.388669,,,0,,2,252
334,3642,101352,West Saanich at Elk Lake Dr.,,48.495795,-123.389639,,,0,,2,86
335,3608,101318,West Saanich at Royal Oak Shopping Ctr,,48.492801,-123.387518,,,0,,2,86
336,55091,102008,"West Saanich, 4392 block",,48.489384,-123.386275,,,0,,2,86
337,3659,101369,Chatterton at Royal Oak Dr.,,48.497136,-123.380046,,,0,,2,20
338,3641,101351,"Chatterton, 4540 block",,48.496563,-123.383551,,,0,,2,20
339,3623,101333,Chatterton at Royal Oak Av.,,48.494632,-123.384631,,,0,,2,20
340,3597,101306,Chatterton at Dalewood,,48.493054,-123.38399,,,0,,2,20
341,3526,101234,"Chatterton, 4420 block",,48.488209,-123.383192,,,0,,2,20
342,3510,101217,"Chatterton, 4430 block",,48.488414,-123.38304,,,0,,2,21
343,3604,101313,Chatterton at Dalewood,,48.493469,-123.383599,,,0,,2,21
344,3625,101335,Chatterton at Royal Oak Av.,,48.4947,-123.384434,,,0,,2,21
345,3643,101353,"Chatterton, 4550 block",,48.496439,-123.383248,,,0,,2,21
346,3656,101366,Chatterton at Royal Oak Dr.,,48.49709,-123.379819,,,0,,2,21
347,3548,101257,"West Saanich, 4360 block",,48.48988,-123.385796,,,0,,2,122
348,3606,101316,West Saanich at Royal Oak Shopping Ctr,,48.492843,-123.387293,,,0,,2,122
349,3635,101345,West Saanich at Elk Lake Dr.,,48.49569,-123.389282,,,0,,2,122
350,3688,101399,West Saanich at Pipeline,,48.497761,-123.39222,,,0,,2,130
351,3701,101412,Royal Oak at West Saanich,,48.4985,-123.393149,,,0,,2,146
352,147622,102490,Royal Oak Exch - Commonwealth Place,,48.499032,-123.388833,,,0,,2,0
353,147621,102489,Royal Oak Exch - Commonwealth Place,,48.498492,-123.388696,,,0,,2,0
354,147625,102511,Royal Oak Exch - Commonwealth Place,,48.498653,-123.388543,,,0,,2,0
355,2726,100405,UVic Exchange,,48.466248,-123.308867,,,0,,2,45
356,3030,100725,Foul Bay at Lansdowne,,48.445461,-123.321893,,,0,,2,45
357,3007,100702,Foul Bay at Forrester,,48.443338,-123.321974,,,0,,2,45
358,2986,100681,Foul Bay at Neil,,48.44171,-123.322084,,,0,,2,112
359,2967,100659,Foul Bay at Townley,,48.440056,-123.322168,,,0,,2,45
360,2933,100625,Foul Bay at Kings,,48.437383,-123.322291,,,0,,2,45
361,2911,100602,Foul Bay at Haultain,,48.435462,-123.322366,,,0,,2,45
362,2704,100383,Fairfield at Robertson,,48.415109,-123.332041,,,0,,2,45
363,2663,100340,Fairfield at Lillian,,48.413137,-123.334293,,,0,,2,45
364,2562,100236,Fairfield at Memorial,,48.412313,-123.343412,,,0,,2,41
365,2531,100205,Fairfield at Kipling,,48.414005,-123.345655,,,0,,2,41
366,109407,102215,Fairfield at Cornwall (for Moss St),,48.416083,-123.349929,,,0,,2,41
367,2465,100137,Fairfield at Linden,,48.417108,-123.352486,,,0,,2,41
368,2452,100124,Fairfield at Su'it,,48.417596,-123.353766,,,0,,2,41
369,2425,100091,Fairfield at Cook,,48.418159,-123.356234,,,0,,2,45
370,2411,100073,Fairfield at Vancouver,,48.418377,-123.358013,,,0,,2,45
371,2392,100051,Douglas at Yates / Johnson,,48.426708,-123.364671,,,0,,2,138
372,2426,100092,Fairfield at Cook,,48.418006,-123.355761,,,0,,2,45
373,2451,100123,Fairfield at Su'it,,48.417471,-123.353763,,,0,,2,39
374,2468,100141,Fairfield at Linden,,48.416737,-123.35186,,,0,,2,39
375,2488,100162,Fairfield at Moss,,48.415555,-123.349387,,,0,,2,39
376,2536,100210,Fairfield at Kipling,,48.413679,-123.345531,,,0,,2,39
377,2566,100241,Fairfield at Memorial,,48.412146,-123.34342,,,0,,2,39
378,2667,100345,Fairfield at Lillian,,48.413071,-123.334116,,,0,,2,45
379,2711,100390,Fairfield at Richmond,,48.415287,-123.330948,,,0,,2,45
380,2885,100575,Foul Bay at Cadboro Bay / Fort,,48.432804,-123.322303,,,0,,2,112
381,2914,100605,Foul Bay at Haultain,,48.435649,-123.322168,,,0,,2,45
382,2934,100626,Foul Bay at Kings,,48.437565,-123.322077,,,0,,2,45
383,2972,100665,Foul Bay at Townley,,48.440525,-123.321932,,,0,,2,45
384,2994,100689,Foul Bay at Neil,,48.442222,-123.321826,,,0,,2,112
385,3022,100717,Foul Bay at Cochrane,,48.444582,-123.321762,,,0,,2,45
386,4635,102426,UVic Exchange,,48.466094,-123.309073,,,0,,2,103
387,3104,100800,Oak Bay Marina,,48.423681,-123.302932,,,0,,2,50
388,2644,100320,Fort at Oak Bay - Oak Bay Junction,,48.427034,-123.335786,,,0,,2,214
389,2705,100384,Fort at Leighton,,48.428554,-123.332397,,,0,,2,147
390,2753,100434,Richmond at Fort,,48.430114,-123.329892,,,0,,2,89
391,2796,100479,Richmond at Bay - Royal Jubilee Hospital,,48.434065,-123.329013,,,0,,2,89
392,2830,100518,Richmond at Haultain,,48.436233,-123.32856,,,0,,2,89
393,2856,100544,Richmond at Kings,,48.43773,-123.328245,,,0,,2,89
394,2875,100565,Richmond at Newton,,48.43913,-123.327973,,,0,,2,89
395,2915,100606,Richmond at Allenby,,48.441525,-123.327466,,,0,,2,89
396,2960,100652,Richmond at Cochrane,,48.444251,-123.326856,,,0,,2,89
397,2923,100615,Shelbourne at Hillside - Hillside Ctr.,,48.44619,-123.333155,,,0,,2,148
398,2945,100637,North Dairy at Browning,,48.448248,-123.334705,,,0,,2,56
399,2918,100610,North Dairy at Keats,,48.448274,-123.337278,,,0,,2,24
400,2894,100584,North Dairy at Wetherby,,48.448315,-123.34009,,,0,,2,24
401,2860,100548,Finlayson at Cedar Hill,,48.448439,-123.344507,,,0,,2,24
402,2805,100490,Finlayson at Cook,,48.447887,-123.349002,,,0,,2,24
403,2743,100422,Finlayson at Somerset,,48.446927,-123.356481,,,0,,2,24
404,2713,100392,Finlayson at Glasgow,,48.446216,-123.362174,,,0,,2,24
405,2680,100359,Finlayson at Blanshard - Mayfair Mall,,48.445528,-123.367705,,,0,,2,24
406,2662,100339,Finlayson at Douglas - Mayfair Mall,,48.444885,-123.37165,,,0,,2,24
407,2643,100319,Jutland at Sumas,,48.443664,-123.374875,,,0,,2,24
408,2621,100297,Gorge at Jutland,,48.442383,-123.377626,,,0,,2,84
409,2649,100325,Gorge at Washington,,48.443152,-123.38171,,,0,,2,84
410,2690,100369,Gorge at Balfour,,48.443599,-123.386828,,,0,,2,84
411,2719,100398,Gorge at Harriet,,48.443885,-123.389652,,,0,,2,84
412,2780,100462,Gorge at Wascana,,48.44577,-123.39347,,,0,,2,84
413,2837,100525,Gorge at Orillia,,48.447334,-123.397172,,,0,,2,84
414,2879,100569,Gorge at Tillicum,,48.447803,-123.399439,,,0,,2,84
415,2910,100601,Tillicum at Obed,,48.450283,-123.39748,,,0,,2,148
416,2977,100671,Tillicum Ctr / G.R. Pearkes Rec Ctr,,48.454294,-123.396397,,,0,,2,115
417,2936,100628,Tillicum at Maddock / Arena,,48.452226,-123.395274,,,0,,2,132
418,2976,100670,Burnside at Tillicum - Tillicum Ctr,,48.455164,-123.393527,,,0,,2,101
419,3021,100716,Burnside Rd at Hwy 1 ramp,,48.456898,-123.394602,,,0,,2,101
420,3101,100797,Interurban at Dumeresq,,48.462358,-123.395358,,,0,,2,64
421,3163,100860,Interurban at Columbine,,48.464165,-123.397041,,,0,,2,64
422,3239,100938,Interurban at Marigold,,48.467079,-123.401654,,,0,,2,64
423,3288,100987,Interurban at Hyacinth,,48.469664,-123.403703,,,0,,2,64
424,3323,101022,Interurban at Chesterfield,,48.472483,-123.405917,,,0,,2,64
425,3361,101061,Interurban at Meadowview,,48.47462,-123.407589,,,0,,2,64
426,3432,101136,"Interurban, 4140 block",,48.47725,-123.409714,,,0,,2,64
427,3454,101158,Interurban at Wilkinson,,48.479704,-123.411603,,,0,,2,85
428,3554,101263,Interurban at Charlton,,48.484054,-123.414402,,,0,,2,85
429,3593,101302,Interurban at Alan - P.I.S.E.,,48.486895,-123.415478,,,0,,2,85
430,3637,101347,Interurban at Hector,,48.489028,-123.417635,,,0,,2,85
431,3655,101365,Camosun - Interurban Campus Loop,,48.490536,-123.418738,,,0,,2,164
432,2969,100662,Burnside at Tillicum - Tillicum Ctr,,48.454615,-123.39358,,,0,,2,164
433,2956,100648,Tillicum at Burnside - Tillicum Ctr,,48.453329,-123.394347,,,0,,2,190
434,2927,100619,Tillicum at Arena / Maddock,,48.451548,-123.396354,,,0,,2,190
435,2907,100598,Tillicum at Obed,,48.449732,-123.39839,,,0,,2,148
436,2872,100562,Gorge at Tillicum,,48.447662,-123.399213,,,0,,2,85
437,2401,100061,Gorge at Millgrove,,48.446604,-123.395005,,,0,,2,85
438,2777,100459,Gorge at Wascana,,48.445253,-123.392991,,,0,,2,85
439,2716,100395,Gorge at Harriet,,48.443771,-123.38972,,,0,,2,85
440,2684,100363,Gorge at Balfour,,48.443424,-123.386503,,,0,,2,85
441,2650,100326,Gorge at Washington,,48.443032,-123.382057,,,0,,2,85
442,2624,100300,Jutland at Cecelia,,48.442626,-123.375664,,,0,,2,26
443,2652,100328,Finlayson at Burnside,,48.444238,-123.373374,,,0,,2,26
444,2665,100343,Finlayson at Douglas - Mayfair Mall,,48.445065,-123.369842,,,0,,2,26
445,2699,100378,Finlayson at Glasgow,,48.446022,-123.362782,,,0,,2,26
446,2744,100424,Finlayson at Blackwood,,48.446927,-123.355565,,,0,,2,26
447,2802,100487,Finlayson at Cook,,48.447808,-123.348601,,,0,,2,26
448,2853,100541,Finlayson at Cedar Hill,,48.448301,-123.344821,,,0,,2,26
449,2919,100611,North Dairy at Keats,,48.448144,-123.336796,,,0,,2,26
450,2983,100678,Richmond at Watson,,48.445543,-123.326768,,,0,,2,93
451,2954,100646,Richmond at Forrester,,48.444061,-123.327092,,,0,,2,93
452,2905,100596,Richmond at Allenby,,48.441059,-123.327741,,,0,,2,93
453,2878,100568,Richmond at Carnarvon,,48.439239,-123.328142,,,0,,2,93
454,2842,100530,Richmond at Kings,,48.437549,-123.328484,,,0,,2,93
455,2820,100506,Richmond at Adanac,,48.435535,-123.328906,,,0,,2,93
456,2785,100468,Richmond at Bay - Royal Jubilee Hospital,,48.433397,-123.329354,,,0,,2,93
457,2759,100441,Richmond at Coronation,,48.431365,-123.329793,,,0,,2,93
458,2728,100407,Richmond at Leighton,,48.428139,-123.330332,,,0,,2,26
459,3073,100769,Windsor at Newport,,48.423755,-123.306063,,,0,,2,26
460,3631,101341,Interurban at Hector - P.I.S.E.,,48.489105,-123.418064,,,0,,2,91
461,3584,101293,Interurban at Courtland,,48.486069,-123.415724,,,0,,2,91
462,3555,101264,Interurban at Charlton,,48.483577,-123.414316,,,0,,2,91
463,3451,101155,Interurban at Dunsterville,,48.479249,-123.411444,,,0,,2,91
464,3429,101133,Interurban at Wilkinson,,48.477688,-123.410248,,,0,,2,72
465,3356,101056,Interurban at Meadowview,,48.474199,-123.407476,,,0,,2,72
466,3309,101008,Interurban at Grange,,48.471636,-123.405457,,,0,,2,72
467,3285,100984,Interurban at Hyacinth,,48.469453,-123.403768,,,0,,2,72
468,3227,100924,Interurban at Marigold,,48.466402,-123.40127,,,0,,2,72
469,3158,100855,Interurban at Columbine,,48.464029,-123.397118,,,0,,2,72
470,3047,100743,Burnside at Interurban,,48.458213,-123.394954,,,0,,2,107
471,3713,101424,Royal Oak Exch - Commonwealth Place,,48.499239,-123.388719,,,0,,2,47
472,3718,101429,Royal Oak at Smokey Smith,,48.499164,-123.392156,,,0,,2,37
473,3681,101392,Markham at West Saanich,,48.500191,-123.40325,,,0,,2,37
474,3695,101406,"Markham, 4530 block",,48.496383,-123.405463,,,0,,2,37
475,3684,101395,Markham - V.I. Tech Park,,48.49438,-123.411752,,,0,,2,65
476,3748,101459,Markham at Parking Lot 3,,48.493017,-123.414689,,,0,,2,65
477,3700,101411,Interurban at Hughes,,48.491641,-123.419772,,,0,,2,77
478,2612,100288,Gorge at Jutland,,48.441525,-123.375856,,,0,,2,59
479,2579,100254,Gorge at Garbally,,48.440323,-123.372735,,,0,,2,59
480,2544,100218,Gorge at Government / Douglas,,48.438549,-123.368111,,,0,,2,59
481,2571,100246,Gorge at Rock Bay,,48.439725,-123.370768,,,0,,2,60
482,2580,100256,Gorge at Garbally,,48.440331,-123.372289,,,0,,2,60
483,3664,101375,Interurban at Camosun College,,48.490687,-123.419303,,,0,,2,61
484,3738,101449,Markham at Parking Lot 3,,48.492969,-123.414247,,,0,,2,65
485,3680,101391,Markham at V.I. Tech Park,,48.49419,-123.411763,,,0,,2,65
486,3692,101403,"Markham, 4540 block",,48.497013,-123.404929,,,0,,2,37
487,3683,101394,Markham at West Saanich,,48.500047,-123.403117,,,0,,2,37
488,147623,102495,Royal Oak Exch - Commonwealth Place,,48.499234,-123.388727,,,0,,2,0
489,4648,103724,Bay at Wilson - Westside Village,,48.432438,-123.382703,,,0,,2,22
490,2496,100170,Bay at Turner,,48.434842,-123.375412,,,0,,2,22
491,2506,100180,Bay at Rock Bay,,48.435822,-123.369355,,,0,,2,22
492,4649,103726,Bay at Douglas / Westbourne,,48.435571,-123.364008,,,0,,2,22
493,4650,103727,Bay at Dowler,,48.435418,-123.361443,,,0,,2,22
494,4653,103730,Bay at Fifth,,48.435172,-123.356775,,,0,,2,22
495,76280,102019,Bay at Empire (for Cook St),,48.434857,-123.350871,,,0,,2,22
496,4655,103734,Bay at Cedar Hill,,48.434592,-123.347344,,,0,,2,22
497,4656,103735,Bay at Roseberry,,48.434393,-123.343872,,,0,,2,54
498,4658,103738,Bay at Victor,,48.434098,-123.337872,,,0,,2,54
499,4660,103740,Bay at Howard,,48.433924,-123.334653,,,0,,2,54
500,114406,100006,Superior at Gov't - Legislature Terminal,,48.418272,-123.368067,,,0,,2,125
501,95288,102187,Wharf at Broughton,,48.423893,-123.369468,,,0,,2,21
502,3242,100941,Esquimalt at Harbour,,48.428249,-123.375226,,,0,,2,200
503,2431,100097,Esquimalt at Tyee,,48.428822,-123.377965,,,0,,2,111
504,2462,100134,Esquimalt at Sitkum,,48.430127,-123.38048,,,0,,2,111
505,4659,103739,Bay at Shakespeare,,48.434091,-123.335426,,,0,,2,58
506,109614,102433,Bay at Belmont,,48.434337,-123.340089,,,0,,2,58
507,4657,103736,Bay at Roseberry,,48.434507,-123.344041,,,0,,2,58
508,4654,103733,Bay at Cedar Hill,,48.434765,-123.348086,,,0,,2,23
509,76289,102028,Bay at Prior (for Cook St),,48.435196,-123.353817,,,0,,2,23
510,4652,103729,Bay at Quadra,,48.435333,-123.35749,,,0,,2,23
511,4651,103728,Bay at Dowler,,48.435566,-123.36145,,,0,,2,23
512,2511,100185,Bay at Douglas,,48.435804,-123.365997,,,0,,2,23
513,2509,100183,Bay at Rock Bay,,48.435924,-123.368484,,,0,,2,23
514,2501,100175,Bay at Turner,,48.43507,-123.374896,,,0,,2,23
515,2478,100152,Bay at Wilson,,48.432622,-123.382781,,,0,,2,23
516,2487,100161,Esquimalt at Catherine,,48.430321,-123.383108,,,0,,2,112
517,2432,100099,Esquimalt at Tyee,,48.428651,-123.378013,,,0,,2,112
518,3233,100930,Esquimalt at Harbour,,48.428108,-123.375097,,,0,,2,198
519,2394,100053,Johnson at Wharf,,48.427745,-123.369699,,,0,,2,66
520,2396,100055,Johnson at Broad,,48.427253,-123.365627,,,0,,2,66
521,2821,100507,UVic Exchange,,48.4664,-123.308661,,,0,,2,58
522,3453,101157,Finnerty at Edgelow,,48.469355,-123.304694,,,0,,2,77
523,3487,101193,Arbutus at Qu. Alexandra Childrens Hosp.,,48.469579,-123.301256,,,0,,2,58
524,3494,101201,Arbutus at Haro,,48.467908,-123.298187,,,0,,2,58
525,3499,101206,Arbutus at Rowley,,48.466777,-123.296176,,,0,,2,58
526,3501,101208,Arbutus at Hobbs,,48.465393,-123.293749,,,0,,2,58
527,3518,101226,Arbutus at Sherwood,,48.463621,-123.290504,,,0,,2,58
528,3527,101235,Arbutus at Lauder,,48.462255,-123.288001,,,0,,2,58
529,3522,101230,Telegraph Bay at Seaview,,48.460094,-123.286039,,,0,,2,61
530,3488,101195,Cadboro Bay at Dawe,,48.459824,-123.288568,,,0,,2,61
531,3465,101169,Cadboro Bay at Cherrilee,,48.461583,-123.292747,,,0,,2,61
532,3448,101152,Cadboro Bay at Maynard,,48.461954,-123.295119,,,0,,2,61
533,3413,101117,Cadboro Bay at Sinclair,,48.460872,-123.29791,,,0,,2,58
534,3378,101079,Cadboro Bay at Bermuda,,48.459262,-123.299682,,,0,,2,58
535,3358,101058,Cadboro Bay at Vista Bay,,48.457408,-123.300412,,,0,,2,58
536,3322,101021,Beach at Midland,,48.454469,-123.30087,,,0,,2,58
537,3306,101005,Beach at Ripon,,48.451751,-123.299627,,,0,,2,58
538,3319,101018,Beach at Ripon,,48.450806,-123.297877,,,0,,2,58
539,3324,101023,Beach at Humber,,48.448884,-123.294747,,,0,,2,58
540,3314,101013,Beach at Lansdowne,,48.446485,-123.294366,,,0,,2,58
541,3287,100986,Lansdowne at Norfolk,,48.444507,-123.296982,,,0,,2,58
542,3248,100947,Lansdowne at Ripon,,48.444416,-123.301173,,,0,,2,58
543,3217,100914,Nottingham at Devon,,48.4446,-123.305328,,,0,,2,58
544,3173,100870,Nottingham at Dorset,,48.44356,-123.307404,,,0,,2,58
545,3128,100824,Nottingham at Burdick,,48.442114,-123.310314,,,0,,2,58
546,3098,100794,Nottingham at Thompson,,48.44133,-123.311897,,,0,,2,58
547,3077,100773,Cadboro Bay at Harlow,,48.440048,-123.312691,,,0,,2,58
548,3062,100758,Cadboro Bay at Pacific,,48.438811,-123.312822,,,0,,2,58
549,3043,100739,Cadboro Bay at Woodhouse,,48.43662,-123.313045,,,0,,2,58
550,3023,100718,Cadboro Bay at Dalhousie,,48.434535,-123.313169,,,0,,2,58
551,2971,100664,Cadboro Bay at Eastdowne,,48.433573,-123.317098,,,0,,2,58
552,2947,100639,Cadboro Bay at Epworth,,48.43255,-123.320119,,,0,,2,58
553,2723,100402,Fort at Ashgrove,,48.429114,-123.331387,,,0,,2,125
554,2672,100351,Fort at Morrison,,48.428099,-123.334046,,,0,,2,125
555,2618,100294,Fort at Pandora - Oak Bay Junction,,48.42627,-123.337803,,,0,,2,192
556,2550,100224,Fort at Stanley,,48.424605,-123.342765,,,0,,2,125
557,2517,100191,Yates at Fernwood,,48.424607,-123.346277,,,0,,2,227
558,2491,100165,Yates at Ormond,,48.424682,-123.348894,,,0,,2,160
559,2454,100126,Fort at Cook,,48.423277,-123.353475,,,0,,2,222
560,2479,100153,Fort at Linden,,48.422939,-123.350254,,,0,,2,155
561,2513,100187,Fort at Fernwood - Castle / Art Gallery,,48.423306,-123.34603,,,0,,2,190
562,2538,100212,Fort at Elford,,48.424939,-123.341307,,,0,,2,123
563,2610,100286,Fort at Belmont,,48.425916,-123.33829,,,0,,2,123
564,2747,100427,Fort at Richmond,,48.429697,-123.329685,,,0,,2,125
565,2883,100573,Cadboro Bay at Bee - Oak Bay Rec Ctr,,48.432246,-123.321656,,,0,,2,58
566,2924,100616,Cadboro Bay at Cranmore,,48.432771,-123.318374,,,0,,2,58
567,2978,100673,Cadboro Bay at Eastdowne,,48.433461,-123.315914,,,0,,2,58
568,3041,100737,Cadboro Bay at Woodhouse,,48.435876,-123.312894,,,0,,2,58
569,3051,100747,Cadboro Bay at Kinross,,48.437269,-123.3128,,,0,,2,58
570,3060,100756,Cadboro Bay at Estevan,,48.438515,-123.312654,,,0,,2,58
571,3081,100777,Cadboro Bay at Harlow,,48.440014,-123.312492,,,0,,2,58
572,3096,100792,Cadboro Bay at Neil,,48.442161,-123.312228,,,0,,2,58
573,3154,100850,Uplands at Dewdney,,48.444298,-123.309473,,,0,,2,58
574,3215,100912,Uplands at Cotswold,,48.446656,-123.306772,,,0,,2,58
575,3237,100936,Cotswold at Weald,,48.446899,-123.304392,,,0,,2,58
576,3269,100968,Midland Circle,,48.447687,-123.301392,,,0,,2,58
577,3298,100997,Midland at Beach,,48.451963,-123.301332,,,0,,2,58
578,3325,101024,Beach at Midland,,48.454624,-123.30066,,,0,,2,58
579,3353,101053,Cadboro Bay at Vista Bay,,48.457381,-123.300212,,,0,,2,58
580,3397,101100,Cadboro Bay at Killarney,,48.46013,-123.298556,,,0,,2,58
581,3422,101126,Cadboro Bay at Sinclair,,48.461371,-123.296889,,,0,,2,61
582,3447,101151,Cadboro Bay at Maynard,,48.461854,-123.29489,,,0,,2,61
583,3463,101167,Cadboro Bay at Cherrilee,,48.461272,-123.292408,,,0,,2,61
584,3480,101186,Cadboro Bay at Dawe,,48.459817,-123.288913,,,0,,2,61
585,3530,101239,Telegraph Bay at Green Vale,,48.460216,-123.285585,,,0,,2,61
586,3531,101240,Arbutus at Lauder,,48.462399,-123.287982,,,0,,2,58
587,3523,101231,Arbutus at Sherwood,,48.463725,-123.290373,,,0,,2,58
588,3507,101214,Arbutus at Hobbs,,48.465988,-123.294517,,,0,,2,58
589,3504,101211,Arbutus at Rowley,,48.466861,-123.296039,,,0,,2,58
590,3498,101205,Arbutus at Haro,,48.468108,-123.298266,,,0,,2,58
591,3495,101202,Arbutus at Qu. Alexandra Childrens Hosp.,,48.469682,-123.301083,,,0,,2,58
592,3450,101154,Finnerty at Edgelow,,48.469059,-123.305302,,,0,,2,77
593,147643,102573,Fort at Joan Cres - Castle & Art Gallery,,48.42369,-123.344991,,,0,,2,0
594,3266,100965,Garnet at Cedar Hill,,48.467821,-123.334973,,,0,,2,81
595,3307,101006,Cedar Hill at Hopesmore,,48.471258,-123.334774,,,0,,2,19
596,3360,101060,Cedar Hill at Feltham,,48.47537,-123.335505,,,0,,2,19
597,3372,101072,Cedar Hill at Craigiewood,,48.476715,-123.337183,,,0,,2,19
598,3427,101131,Cedar Hill at Cedarglen,,48.480821,-123.339531,,,0,,2,19
599,3481,101187,Cedar Hill at Kenmore,,48.483766,-123.339109,,,0,,2,19
600,3500,101207,Kenmore at Shelbourne,,48.484155,-123.336449,,,0,,2,22
601,3505,101212,Kenmore at Columbia,,48.482822,-123.330317,,,0,,2,19
602,3506,101213,Kenmore at Torquay,,48.481931,-123.327001,,,0,,2,19
603,3528,101236,Tyndall at Francisco,,48.481583,-123.322413,,,0,,2,69
604,3558,101267,San Juan at Tyndall,,48.482754,-123.321332,,,0,,2,19
605,3563,101272,San Juan at Chartwell,,48.481626,-123.31723,,,0,,2,19
606,3571,101280,San Juan at Hillcrest,,48.480393,-123.312659,,,0,,2,19
607,3579,101288,San Juan at Wakefield,,48.479484,-123.309175,,,0,,2,19
608,3562,101271,Arbutus at Ebony,,48.47682,-123.30626,,,0,,2,19
609,3535,101244,Arbutus at Lexington,,48.473741,-123.303915,,,0,,2,19
610,4214,101949,Arbutus at Finnerty,,48.470829,-123.303228,,,0,,2,19
611,3161,100858,UVic Exchange,,48.465883,-123.308503,,,0,,2,44
612,4216,101951,Arbutus at Finnerty,,48.47089,-123.303064,,,0,,2,19
613,3538,101247,Arbutus at Lexington,,48.473804,-123.303762,,,0,,2,19
614,3569,101278,Arbutus at Ebony,,48.477622,-123.30646,,,0,,2,19
615,3581,101290,San Juan at Wakefield,,48.479383,-123.308431,,,0,,2,19
616,3573,101282,San Juan at San Pedro,,48.480821,-123.313716,,,0,,2,19
617,3568,101277,San Juan at Chartwell,,48.481617,-123.316738,,,0,,2,19
618,3556,101265,Tyndall at San Juan,,48.482725,-123.32196,,,0,,2,70
619,3529,101238,Tyndall at Kenmore,,48.48143,-123.322733,,,0,,2,70
620,3515,101222,Kenmore at Torquay,,48.482267,-123.327796,,,0,,2,19
621,3511,101218,Kenmore at Columbia,,48.482952,-123.330246,,,0,,2,19
622,3512,101219,Kenmore at Majestic,,48.484051,-123.334312,,,0,,2,67
623,3475,101181,Cedar Hill at Kenmore,,48.483564,-123.339326,,,0,,2,19
624,3418,101122,Cedar Hill at Cedarglen,,48.480108,-123.339925,,,0,,2,19
625,3370,101070,Cedar Hill at Craigiewood,,48.476601,-123.337288,,,0,,2,19
626,3349,101049,Cedar Hill at Feltham,,48.474849,-123.33531,,,0,,2,19
627,3304,101003,Cedar Hill at Hopesmore,,48.471382,-123.335006,,,0,,2,19
628,3272,100971,McKenzie at Cedar Hill,,48.468553,-123.334841,,,0,,2,104
629,3281,100980,Shelbourne at McKenzie,,48.468035,-123.332865,,,0,,2,138
630,3577,101286,Arbutus at Juan De Fuca,,48.459739,-123.280359,,,0,,2,6
631,3417,101121,Sinclair at Hobbs,,48.461637,-123.298585,,,0,,2,3
632,3410,101114,Sinclair at Haro,,48.464042,-123.302865,,,0,,2,3
633,3406,101109,Sinclair at Clarndon,,48.465478,-123.305404,,,0,,2,3
634,3398,101101,Sinclair at Clarndon,,48.46518,-123.30524,,,0,,2,3
635,3560,101269,Arbutus at Arbutus,,48.459307,-123.281681,,,0,,2,3
636,3578,101287,Arbutus at Arbutus Pl,,48.457731,-123.278126,,,0,,2,3
637,3609,101319,"Arbutus, 2800 block",,48.459352,-123.275822,,,0,,2,3
638,4627,102416,UVic Exchange,,48.466153,-123.30926,,,0,,2,67
639,3261,100960,Cedar Hill Cross Rd. at University Dr,,48.459501,-123.31763,,,0,,2,67
640,3243,100942,Cedar Hill Cross Rd. at Mayfair,,48.460639,-123.322084,,,0,,2,67
641,3214,100911,Cedar Hill Cross Rd. at Iona,,48.460544,-123.326974,,,0,,2,67
642,3164,100861,Richmond at Poplar,,48.459512,-123.329997,,,0,,2,67
643,3124,100820,Richmond at Cedar,,48.45607,-123.328303,,,0,,2,67
644,3088,100784,Richmond at Knight,,48.453152,-123.326772,,,0,,2,67
645,3079,100775,Richmond at Woodley,,48.452104,-123.326397,,,0,,2,67
646,3054,100750,Richmond at Ernest,,48.450008,-123.325636,,,0,,2,67
647,3024,100719,Richmond at Argyle - Camosun College,,48.44722,-123.326395,,,0,,2,67
648,2389,100048,Yates at Broad / Douglas,,48.426441,-123.36571,,,0,,2,179
649,2391,100050,Government at Johnson,,48.427226,-123.367245,,,0,,2,179
650,2415,100077,Pandora at Government / Store,,48.428596,-123.368124,,,0,,2,179
651,109615,102434,Tyee at Wilson,,48.430867,-123.378324,,,0,,2,67
652,2508,100182,Tyee at Bay,,48.434358,-123.381374,,,0,,2,67
653,2545,100219,Skinner at Catherine,,48.43566,-123.385353,,,0,,2,67
654,2605,100281,Craigflower at Belton,,48.437425,-123.388834,,,0,,2,67
655,2642,100318,Craigflower at Coventry,,48.439057,-123.391631,,,0,,2,67
656,2709,100388,Craigflower at Carrie,,48.440269,-123.395438,,,0,,2,67
657,2738,100417,Craigflower at Arcadia,,48.440752,-123.398587,,,0,,2,67
658,2775,100457,Craigflower at Lampson,,48.441569,-123.401288,,,0,,2,67
659,2806,100491,Craigflower at Tillicum,,48.442282,-123.40317,,,0,,2,67
660,2896,100586,"Craigflower, 1115 block",,48.444184,-123.407221,,,0,,2,67
661,2942,100634,Craigflower at Forshaw,,48.445426,-123.409749,,,0,,2,67
662,2988,100683,Craigflower at Garthland,,48.446599,-123.412205,,,0,,2,67
663,3103,100799,Craigflower at Rankin,,48.448385,-123.417401,,,0,,2,67
664,3058,100754,Craigflower at Aral,,48.449642,-123.420432,,,0,,2,67
665,3162,100859,Craigflower at Admirals,,48.450766,-123.424088,,,0,,2,67
666,3199,100896,Island Hwy at Shoreline,,48.451748,-123.425625,,,0,,2,78
667,3240,100939,Island Hwy at Glentana - Shoreline Sch,,48.452708,-123.428922,,,0,,2,78
668,3302,101001,Island Hwy at Plowright,,48.453724,-123.437177,,,0,,2,78
669,3351,101051,Helmcken at Island Hwy,,48.456419,-123.440493,,,0,,2,67
670,3327,101026,Helmcken at Midwood,,48.458515,-123.435062,,,0,,2,67
671,3326,101025,Helmcken at Parkcrest,,48.459937,-123.433073,,,0,,2,67
672,3346,101046,Helmcken at Hwy 1 s/b ramp,,48.463329,-123.431169,,,0,,2,67
673,3364,101064,Helmcken at Hwy 1 n/b ramp,,48.464583,-123.430446,,,0,,2,67
674,3380,101081,Watkiss Wy at Helmcken - Eagle Creek Vlg,,48.467329,-123.429448,,,0,,2,120
675,3439,101143,Hospital Way at Watkiss Way,,48.466922,-123.436315,,,0,,2,143
676,3415,101119,Victoria General Hospital,,48.466229,-123.435022,,,0,,2,250
677,3441,101145,Watkiss Way at Hospital Way,,48.467683,-123.436007,,,0,,2,118
678,3379,101080,Watkiss Wy at Helmcken - Eagle Creek Vlg,,48.46715,-123.429466,,,0,,2,118
679,3369,101069,Helmcken at Hwy 1 n/b ramp,,48.464561,-123.430861,,,0,,2,65
680,3352,101052,Helmcken at Hwy 1 s/b ramp,,48.463305,-123.431559,,,0,,2,65
681,3332,101031,Helmcken at Werra,,48.459873,-123.433398,,,0,,2,65
682,3333,101032,Helmcken at Caton,,48.458481,-123.435468,,,0,,2,65
683,3350,101050,Island Hwy at Helmcken,,48.455599,-123.440501,,,0,,2,78
684,3303,101002,Island Hwy at Plowright,,48.453612,-123.437294,,,0,,2,78
685,3213,100910,Island Hwy at Glentana - Shoreline Sch,,48.452538,-123.428544,,,0,,2,78
686,3159,100856,Craigflower at Admirals,,48.450573,-123.424,,,0,,2,65
687,3099,100795,Craigflower at Aral,,48.449162,-123.420066,,,0,,2,65
688,3059,100755,Craigflower at Dellwood,,48.447821,-123.41568,,,0,,2,65
689,2992,100687,Craigflower at Garthland,,48.446532,-123.412376,,,0,,2,65
690,2952,100644,Craigflower at Forshaw,,48.445593,-123.410448,,,0,,2,65
691,2895,100585,"Craigflower, 1110 block",,48.444147,-123.40742,,,0,,2,65
692,2807,100492,"Craigflower, 1030 block",,48.442506,-123.404043,,,0,,2,65
693,2781,100463,Craigflower at Tillicum/Lampson,,48.44141,-123.401319,,,0,,2,65
694,2737,100416,Craigflower at Arcadia,,48.440765,-123.399185,,,0,,2,65
695,2707,100386,Craigflower at Carrie,,48.440107,-123.395402,,,0,,2,65
696,2661,100338,Craigflower at Dominion,,48.439551,-123.39348,,,0,,2,65
697,2634,100310,Craigflower at Alderman,,48.438694,-123.390971,,,0,,2,65
698,2597,100273,Craigflower at Pine,,48.436953,-123.38859,,,0,,2,65
699,2541,100215,Skinner at Catherine,,48.435517,-123.384424,,,0,,2,65
700,2512,100186,Tyee at Bay,,48.434134,-123.381355,,,0,,2,65
701,2475,100149,Tyee at Wilson,,48.431033,-123.378723,,,0,,2,86
702,2388,100047,Wharf at Yates,,48.427092,-123.3705,,,0,,2,132
703,2370,100028,Fort at Wharf,,48.424992,-123.369242,,,0,,2,132
704,3017,100712,Richmond at Argyle - Camosun College,,48.447413,-123.32614,,,0,,2,65
705,3055,100751,Richmond at Ernest,,48.449802,-123.325367,,,0,,2,65
706,3082,100778,Richmond at Woodley,,48.452263,-123.326249,,,0,,2,65
707,3097,100793,Richmond at Mayfair,,48.453905,-123.327,,,0,,2,65
708,3126,100822,Richmond at Cedar,,48.456281,-123.328204,,,0,,2,65
709,3148,100844,Richmond at Kingsberry,,48.458123,-123.329158,,,0,,2,65
710,3172,100869,Richmond at Poplar,,48.459716,-123.329899,,,0,,2,65
711,3204,100901,Cedar Hill Cross Rd. at Palo Alto,,48.460372,-123.327908,,,0,,2,65
712,3245,100944,Cedar Hill Cross Rd. at Gordon Head,,48.460494,-123.321698,,,0,,2,65
713,3257,100956,Cedar Hill Cross Rd. at University Dr,,48.459452,-123.317946,,,0,,2,65
714,3003,100698,HMC Dockyard Terminal,,48.427641,-123.428154,,,0,,2,287
715,2998,100693,Esquimalt at Lyall,,48.428419,-123.428112,,,0,,2,142
716,2943,100635,Esquimalt at Grafton,,48.429364,-123.42345,,,0,,2,142
717,2903,100594,Esquimalt at Sturdee,,48.429669,-123.420828,,,0,,2,142
718,2838,100526,Esquimalt at Admirals,,48.429837,-123.4166,,,0,,2,131
719,2788,100471,Esquimalt at Park,,48.430077,-123.413961,,,0,,2,131
720,2742,100421,Esquimalt at Fernhill,,48.429926,-123.41019,,,0,,2,131
721,2686,100365,Esquimalt at Lampson,,48.429453,-123.406403,,,0,,2,67
722,2651,100327,Esquimalt at MacAulay,,48.429062,-123.40406,,,0,,2,67
723,2623,100299,Esquimalt at Head,,48.43063,-123.400316,,,0,,2,67
724,2607,100283,"Esquimalt, 850 block",,48.431532,-123.397942,,,0,,2,67
725,2557,100231,Esquimalt at Barnard,,48.431309,-123.393234,,,0,,2,89
726,2523,100197,Esquimalt at Maitland,,48.430623,-123.389812,,,0,,2,89
727,2474,100148,Esquimalt at Catherine,,48.430471,-123.385252,,,0,,2,90
728,2530,100204,Esquimalt at Maitland,,48.430846,-123.390257,,,0,,2,90
729,2567,100242,Esquimalt at Dominion,,48.431758,-123.394068,,,0,,2,90
730,2600,100276,"Esquimalt, 830 block",,48.431854,-123.397043,,,0,,2,69
731,2631,100307,Esquimalt at Head,,48.43041,-123.401124,,,0,,2,69
732,2670,100348,Esquimalt nearside Lampson,,48.429447,-123.405565,,,0,,2,69
733,2708,100387,Esquimalt at Joffre,,48.429751,-123.407498,,,0,,2,132
734,2749,100430,Esquimalt at Fernhill,,48.430096,-123.410165,,,0,,2,132
735,2787,100470,Esquimalt at Fraser,,48.43027,-123.413288,,,0,,2,132
736,2857,100545,Esquimalt at Admirals,,48.429936,-123.417545,,,0,,2,145
737,2906,100597,Esquimalt at Foster,,48.429668,-123.422038,,,0,,2,145
738,2959,100651,Canteen at Esquimalt,,48.428904,-123.424622,,,0,,2,145
739,4628,102417,UVic Exchange,,48.466322,-123.309034,,,0,,2,67
740,2616,100292,Burnside at Douglas,,48.442185,-123.369559,,,0,,2,75
741,2668,100346,Burnside at Frances,,48.44501,-123.375406,,,0,,2,75
742,2701,100380,Burnside at Alpha,,48.446142,-123.37779,,,0,,2,75
743,2735,100414,Burnside at Washington,,48.447239,-123.380034,,,0,,2,75
744,2770,100452,Burnside at Balfour,,48.448491,-123.382553,,,0,,2,75
745,2835,100523,Burnside at Qu'Appelle,,48.450366,-123.386279,,,0,,2,138
746,2897,100587,Burnside at Millgrove,,48.451728,-123.388922,,,0,,2,138
747,2928,100620,Burnside at Orillia,,48.453165,-123.391638,,,0,,2,138
748,3675,101386,VI Technology Park Main Entrance,,48.493867,-123.409914,,,0,,2,56
749,3724,101435,Interurban at Conway,,48.493577,-123.419456,,,0,,2,11
750,3750,101461,Interurban at Delmar,,48.495212,-123.419377,,,0,,2,11
751,3779,101490,Interurban at Viaduct Ave W,,48.498524,-123.419438,,,0,,2,4
752,3723,101434,Interurban at Conway,,48.493486,-123.419654,,,0,,2,12
753,2931,100623,Burnside at Albina,,48.45315,-123.392016,,,0,,2,143
754,2882,100572,Burnside at Millgrove,,48.451767,-123.389353,,,0,,2,143
755,2839,100527,Burnside at Wascana,,48.450485,-123.386863,,,0,,2,143
756,2801,100486,Burnside at Harriet,,48.449198,-123.384275,,,0,,2,79
757,2764,100446,Burnside at Eldon,,48.44814,-123.382196,,,0,,2,79
758,2720,100399,Burnside at Alpha,,48.446673,-123.379185,,,0,,2,79
759,2683,100362,Burnside at Napier,,48.445452,-123.376629,,,0,,2,79
760,2647,100323,Burnside at Jutland,,48.443872,-123.373351,,,0,,2,79
761,2614,100290,Burnside at Dunedin / Douglas,,48.442044,-123.369566,,,0,,2,79
762,2521,100195,Douglas at Hillside / Gorge,,48.43868,-123.36729,,,0,,2,356
763,3109,100805,Burnside at Admirals,,48.460352,-123.399648,,,0,,2,37
764,3145,100841,Burnside at McKenzie,,48.461833,-123.401811,,,0,,2,37
765,3206,100903,Burnside at Marigold,,48.463425,-123.404397,,,0,,2,37
766,3231,100928,Burnside at Grange,,48.463145,-123.410607,,,0,,2,37
767,3250,100949,Burnside  at Heritage,,48.463592,-123.412508,,,0,,2,37
768,3279,100978,Burnside at Belgrave,,48.46518,-123.415335,,,0,,2,37
769,3290,100989,Burnside at Wilkinson,,48.465484,-123.416345,,,0,,2,11
770,3317,101016,Burnside at High St,,48.465975,-123.420672,,,0,,2,11
771,3338,101038,Burnside at Eaton,,48.467119,-123.422962,,,0,,2,11
772,3367,101067,Helmcken at Burnside Rd W,,48.46917,-123.423309,,,0,,2,48
773,3393,101096,Holland at Helmcken,,48.471181,-123.42255,,,0,,2,31
774,3420,101124,"Holland, 3940 block",,48.472912,-123.422192,,,0,,2,31
775,3446,101150,Holland at Blue Ridge,,48.475412,-123.421737,,,0,,2,31
776,3474,101179,"Holland, 4050 block",,48.477163,-123.421424,,,0,,2,31
777,3508,101215,Holland at Hastings,,48.479322,-123.420999,,,0,,2,31
778,3486,101192,Hastings at Delmar,,48.479317,-123.418151,,,0,,2,31
779,121447,102446,Hastings at Santa Anita,,48.479157,-123.415989,,,0,,2,31
780,3440,101144,Hastings at Wilkinson,,48.478298,-123.411561,,,0,,2,31
781,2920,100612,Hillside Centre,,48.447371,-123.335485,,,0,,2,67
782,2944,100636,Shelbourne at N. Dairy - Hillside Ctr.,,48.446769,-123.333453,,,0,,2,131
783,2900,100590,Shelbourne at Hillside,,48.445099,-123.333437,,,0,,2,133
784,2843,100531,Shelbourne at Pearl,,48.441712,-123.333532,,,0,,2,131
785,2779,100461,Shelbourne at Kings,,48.437566,-123.333739,,,0,,2,131
786,2752,100433,Shelbourne at Haultain,,48.435484,-123.333809,,,0,,2,131
787,2609,100285,Fernwood at Bay,,48.434259,-123.34511,,,0,,2,35
788,2588,100264,Fernwood at Centre,,48.432213,-123.345186,,,0,,2,35
789,2565,100240,Fernwood at Gladstone,,48.430269,-123.34526,,,0,,2,35
790,116702,102436,Fernwood at Balmoral,,48.427409,-123.345434,,,0,,2,35
791,2533,100207,Fernwood at Rudlin,,48.425855,-123.345537,,,0,,2,35
792,3293,100992,Wilkinson at Burnside Rd W,,48.466362,-123.415121,,,0,,2,26
793,3316,101015,Wilkinson at Tulip,,48.468834,-123.413994,,,0,,2,26
794,3331,101030,"Wilkinson, 3930 block",,48.470731,-123.412236,,,0,,2,26
795,3371,101071,Wilkinson at Helen,,48.474156,-123.412655,,,0,,2,26
796,3401,101104,Wilkinson at Glen Tara,,48.475858,-123.41185,,,0,,2,43
797,3438,101142,Hastings at Wilkinson,,48.47845,-123.411705,,,0,,2,26
798,3467,101171,Hastings at Santa Anita,,48.479202,-123.415392,,,0,,2,26
799,3483,101189,Hastings at Delmar,,48.479416,-123.417843,,,0,,2,26
800,3509,101216,Holland at Hastings,,48.479108,-123.421242,,,0,,2,26
801,3470,101175,"Holland, 4050 block",,48.477179,-123.421596,,,0,,2,26
802,3444,101148,Holland at Blue Ridge,,48.474854,-123.422024,,,0,,2,26
803,3414,101118,"Holland, 3940 block",,48.472934,-123.422393,,,0,,2,26
804,3391,101094,Holland at Helmcken,,48.471149,-123.422736,,,0,,2,26
805,3368,101068,Helmcken at Burnside Rd W,,48.468247,-123.424714,,,0,,2,52
806,3263,100962,Helmcken at Camden,,48.468039,-123.42489,,,0,,2,35
807,3394,101097,Wilkinson at Glen Tara,,48.475521,-123.412371,,,0,,2,46
808,3373,101073,Wilkinson at Helen,,48.473806,-123.412843,,,0,,2,27
809,37567,101976,"Wilkinson, 3930 block",,48.470592,-123.412593,,,0,,2,27
810,3318,101017,Wilkinson at South Valley Drive,,48.46778,-123.414128,,,0,,2,27
811,3291,100990,Wilkinson at Burnside Rd W,,48.465612,-123.415904,,,0,,2,27
812,52645,101978,Burnside at Heritage,,48.463445,-123.412655,,,0,,2,35
813,3223,100920,Burnside at Grange,,48.463071,-123.409759,,,0,,2,35
814,3205,100902,Burnside at Marigold,,48.463337,-123.404524,,,0,,2,35
815,3147,100843,Burnside at McKenzie,,48.461636,-123.401755,,,0,,2,35
816,3114,100810,Burnside at Rolston,,48.460628,-123.400281,,,0,,2,35
817,2520,100194,Fernwood at Yates,,48.424082,-123.34548,,,0,,2,32
818,2529,100203,Fernwood at Johnson,,48.425766,-123.345364,,,0,,2,32
819,2540,100214,Fernwood at Pandora,,48.42722,-123.345264,,,0,,2,32
820,2553,100227,Fernwood at Grant,,48.42887,-123.345186,,,0,,2,32
821,2570,100245,Fernwood at Gladstone,,48.430668,-123.34505,,,0,,2,32
822,2578,100253,Fernwood at Pembroke,,48.431537,-123.345046,,,0,,2,32
823,2768,100450,Shelbourne at Haultain,,48.436487,-123.333565,,,0,,2,121
824,2800,100485,Shelbourne at Kings,,48.438524,-123.333474,,,0,,2,121
825,2861,100549,Shelbourne at Pearl,,48.442239,-123.333342,,,0,,2,121
826,2887,100577,Shelbourne at Myrtle,,48.443984,-123.33328,,,0,,2,121
827,3334,101033,Burnside at Eaton,,48.466797,-123.422731,,,0,,2,8
828,3294,100993,Burnside at Mildred,,48.465488,-123.417182,,,0,,2,8
829,3443,101147,Watkiss Way at Stoneridge,,48.466205,-123.438158,,,0,,2,57
830,3459,101163,Watkiss Way at Talcott,,48.464762,-123.442944,,,0,,2,57
831,3497,101204,Watkiss Way at Burnside Rd W,,48.465076,-123.446313,,,0,,2,28
832,3520,101228,Watkiss Way at Creed,,48.463696,-123.449691,,,0,,2,28
833,3544,101253,Watkiss Way at Marler,,48.462071,-123.453723,,,0,,2,28
834,3575,101284,Highland Loop,,48.462067,-123.456523,,,0,,2,30
835,3543,101252,Watkiss Way at Marler,,48.461936,-123.453801,,,0,,2,30
836,3519,101227,Watkiss Way at Creed,,48.463496,-123.449787,,,0,,2,30
837,3484,101190,Watkiss Way at Burnside Rd W,,48.464519,-123.445485,,,0,,2,59
838,3452,101156,Watkiss Way at Talcott,,48.464832,-123.441678,,,0,,2,59
839,3437,101141,Watkiss Way at Stoneridge,,48.46609,-123.438082,,,0,,2,59
840,119079,102444,Tillicum Centre - Upper Level,,48.453879,-123.394639,,,0,,2,84
841,2913,100604,Obed at Tillicum,,48.450261,-123.39832,,,0,,2,42
842,2974,100668,Obed at Bodega,,48.451955,-123.401623,,,0,,2,42
843,3009,100704,"Obed, 500 block",,48.452837,-123.403373,,,0,,2,42
844,3039,100735,Obed at Dysart,,48.45399,-123.405606,,,0,,2,42
845,3076,100772,Cowper at Austin,,48.454565,-123.408856,,,0,,2,42
846,3107,100803,Cowper at Colquitz,,48.455638,-123.411306,,,0,,2,42
847,4692,104110,Admirals at Cowper,,48.456296,-123.413818,,,0,,2,42
848,3160,100857,Admirals at Murray,,48.45471,-123.418582,,,0,,2,42
849,3184,100881,Admirals Walk Shopping Centre,,48.447514,-123.427883,,,0,,2,44
850,3127,100823,Admirals at Thomas,,48.444382,-123.428145,,,0,,2,56
851,4049,101771,Admirals at Maple Bank,,48.441733,-123.427902,,,0,,2,56
852,3066,100762,Admirals at Luscombe,,48.440425,-123.426186,,,0,,2,56
853,3033,100728,Parklands at McAdam,,48.440548,-123.423556,,,0,,2,10
854,3008,100703,Parklands at Cunningham,,48.441535,-123.420354,,,0,,2,10
855,3011,100706,Kingsmill at Alexander,,48.44266,-123.419714,,,0,,2,10
856,3028,100723,Kingsmill at Parklands,,48.441739,-123.422105,,,0,,2,10
857,3037,100733,Admirals at Parklands,,48.439332,-123.4247,,,0,,2,56
858,2996,100691,Admirals at Coles,,48.438094,-123.42228,,,0,,2,56
859,2921,100613,Colville at Flag,,48.437593,-123.416847,,,0,,2,21
860,2877,100567,Colville at Intervale,,48.437952,-123.413498,,,0,,2,21
861,2836,100524,Colville at Hutchinson,,48.438191,-123.410914,,,0,,2,21
862,2782,100464,Colville at MacLeod,,48.438698,-123.405402,,,0,,2,21
863,2740,100419,Lampson at Colville,,48.438546,-123.40212,,,0,,2,84
864,2729,100408,Lampson at Wurtele,,48.436648,-123.402885,,,0,,2,84
865,2700,100379,Lampson at Old Esquimalt,,48.433878,-123.403708,,,0,,2,84
866,2664,100342,Old Esquimalt at Head,,48.432944,-123.402438,,,0,,2,21
867,2629,100305,Old Esquimalt at Aldebury,,48.432908,-123.399245,,,0,,2,21
868,2587,100263,Old Esquimalt at Viewfield,,48.432885,-123.394495,,,0,,2,21
869,2551,100225,Wilson at Dalton,,48.432532,-123.391218,,,0,,2,21
870,2514,100188,Wilson at Mary,,48.43282,-123.385557,,,0,,2,21
871,2499,100173,Wilson at Bay,,48.432806,-123.38275,,,0,,2,21
872,2470,100144,Cook at Johnson,,48.426226,-123.353313,,,0,,2,42
873,2486,100160,Cook at Balmoral,,48.428727,-123.353007,,,0,,2,42
874,2505,100179,Cook at Caledonia,,48.430703,-123.352733,,,0,,2,42
875,2532,100206,Cook at Princess,,48.433023,-123.352454,,,0,,2,42
876,2561,100235,Cook at Bay,,48.435225,-123.35218,,,0,,2,42
877,2584,100260,Cook at Haultain,,48.436719,-123.352018,,,0,,2,42
878,2653,100329,Cook at Hillside,,48.440672,-123.351384,,,0,,2,42
879,2677,100356,Cook at Higgins,,48.441948,-123.349858,,,0,,2,42
880,2741,100420,Cedar Hill at Hipwood,,48.443889,-123.347531,,,0,,2,21
881,2767,100449,Cedar Hill at Hibberson,,48.444974,-123.346528,,,0,,2,21
882,2811,100497,Cedar Hill at Gosworth,,48.446587,-123.344986,,,0,,2,21
883,2873,100563,Cedar Hill at North Dairy,,48.448683,-123.343644,,,0,,2,21
884,2935,100627,Cedar Hill at McRae,,48.450967,-123.340898,,,0,,2,21
885,2981,100676,Cedar Hill at Oakcrest,,48.452975,-123.34013,,,0,,2,21
886,3016,100711,Cedar Hill at Derby,,48.455043,-123.339532,,,0,,2,21
887,3072,100768,Cedar Hill at Rowan,,48.457606,-123.338888,,,0,,2,21
888,3120,100816,Cedar Hill at Church,,48.460169,-123.338132,,,0,,2,21
889,3165,100862,Cedar Hill Rd. at Cedar Hill Cross Rd.,,48.46205,-123.337322,,,0,,2,21
890,3225,100922,Cedar Hill at Mortimer,,48.465204,-123.336105,,,0,,2,21
891,3249,100948,Cedar Hill at Garnet - Cedar Hill School,,48.466661,-123.335928,,,0,,2,22
892,3166,100863,Cedar Hill Rd. at Cedar Hill Cross Rd.,,48.462202,-123.337406,,,0,,2,22
893,3117,100813,Cedar Hill at Church,,48.460221,-123.338313,,,0,,2,22
894,3057,100753,Cedar Hill at Rowan,,48.457175,-123.339205,,,0,,2,22
895,3012,100707,Cedar Hill at Derby,,48.454687,-123.339835,,,0,,2,22
896,2982,100677,Cedar Hill at Oakcrest,,48.453151,-123.340253,,,0,,2,22
897,2939,100631,Cedar Hill at Doncaster,,48.450637,-123.341586,,,0,,2,22
898,2868,100557,Cedar Hill at North Dairy,,48.44889,-123.343739,,,0,,2,22
899,2813,100499,Cedar Hill at Gosworth,,48.446588,-123.345202,,,0,,2,22
900,2758,100440,Cedar Hill at Hibberson,,48.444768,-123.346924,,,0,,2,22
901,2734,100413,Kiwanis Way at Cedar Hill,,48.443644,-123.34802,,,0,,2,22
902,2675,100354,Cook at Higgins,,48.441967,-123.35009,,,0,,2,43
903,2633,100309,Cook at Hillside,,48.440077,-123.351953,,,0,,2,43
904,2575,100250,Cook at Haultain,,48.436154,-123.352291,,,0,,2,43
905,2552,100226,Cook at Empress,,48.434603,-123.352446,,,0,,2,43
906,2522,100196,Cook at Princess,,48.432408,-123.352726,,,0,,2,43
907,2498,100172,Cook at Caledonia,,48.430231,-123.353009,,,0,,2,43
908,2444,100115,Cook at Pandora,,48.426968,-123.353409,,,0,,2,43
909,2477,100151,"Wilson, 100 block",,48.431478,-123.3793,,,0,,2,22
910,2502,100176,Wilson at Alston,,48.432937,-123.382825,,,0,,2,22
911,2515,100189,Wilson at Mary,,48.43295,-123.3858,,,0,,2,22
912,2555,100229,Wilson at Dalton,,48.43267,-123.391221,,,0,,2,22
913,2596,100272,Old Esquimalt at Viewfield,,48.433023,-123.394966,,,0,,2,22
914,2632,100308,Old Esquimalt at Aldebury,,48.433023,-123.39915,,,0,,2,22
915,2693,100372,Lampson at Old Esquimalt,,48.433395,-123.403682,,,0,,2,86
916,2739,100418,Lampson at Ellery,,48.437581,-123.402247,,,0,,2,86
917,2783,100466,Colville at MacLeod,,48.438808,-123.405438,,,0,,2,22
918,2849,100537,Colville at Hutchinson,,48.438358,-123.410832,,,0,,2,22
919,2889,100579,Colville at Veterans,,48.437946,-123.414704,,,0,,2,22
920,2946,100638,Colville at Admirals,,48.437551,-123.418696,,,0,,2,22
921,2997,100692,Admirals at Coles,,48.438219,-123.422241,,,0,,2,54
922,3080,100776,Admirals at Caroline,,48.440334,-123.425733,,,0,,2,54
923,4056,101778,Admirals at Maple Bank,,48.441846,-123.427763,,,0,,2,54
924,3123,100819,Admirals at Seenupin,,48.4444,-123.42789,,,0,,2,54
925,145231,102566,Admirals at Lekwammen,,48.446124,-123.426818,,,0,,2,54
926,145224,102537,Admirals at Craigflower,,48.450123,-123.42542,,,0,,2,42
927,3153,100849,Admirals at Gorge,,48.453789,-123.419895,,,0,,2,42
928,3155,100852,Admirals at Murray,,48.455034,-123.41764,,,0,,2,42
929,3141,100837,Admirals at Cowper,,48.456224,-123.413619,,,0,,2,42
930,3113,100809,Cowper at Colquitz,,48.45561,-123.411929,,,0,,2,42
931,3078,100774,Cowper at Austin,,48.454412,-123.408885,,,0,,2,42
932,3048,100744,Cowper at Dysart,,48.453581,-123.406707,,,0,,2,42
933,3005,100700,"Obed, 500 block",,48.452835,-123.403696,,,0,,2,42
934,2957,100649,Obed at Bodega,,48.451295,-123.400621,,,0,,2,42
935,2916,100608,Obed at Tillicum,,48.450053,-123.398233,,,0,,2,42
936,2932,100624,Admirals at Colville,,48.436948,-123.418263,,,0,,2,35
937,2890,100580,Admirals at Naden,,48.4338,-123.417852,,,0,,2,35
938,2855,100543,Admirals at Esquimalt,,48.430263,-123.417047,,,0,,2,22
939,2840,100528,Admirals at Lyall,,48.428432,-123.417128,,,0,,2,22
940,2786,100469,Fraser at Lyall,,48.427682,-123.413937,,,0,,2,22
941,2795,100478,Fraser at Wychbury,,48.426154,-123.414829,,,0,,2,22
942,2789,100472,Munro at Fraser,,48.424046,-123.415547,,,0,,2,22
943,2765,100447,Munro at Plaskett,,48.422345,-123.413839,,,0,,2,22
944,2725,100404,Munro at Kinver,,48.421727,-123.410967,,,0,,2,22
945,2692,100371,Lampson at Munro,,48.422015,-123.409083,,,0,,2,22
946,2688,100367,Lampson at Bewdley,,48.423771,-123.408539,,,0,,2,22
947,2685,100364,Lampson at Wychbury,,48.425763,-123.407956,,,0,,2,22
948,2674,100353,Lyall at Lampson,,48.427103,-123.406982,,,0,,2,22
949,2638,100314,Lyall at MacAulay,,48.426706,-123.403968,,,0,,2,22
950,2594,100270,Gore at Lyall,,48.426486,-123.400215,,,0,,2,22
951,2591,100267,Head at Paradise,,48.428054,-123.399068,,,0,,2,22
952,2599,100275,Dunsmuir at Head,,48.429315,-123.398744,,,0,,2,22
953,2577,100252,Dunsmuir at Garrett,,48.4303,-123.396188,,,0,,2,22
954,2576,100251,Dunsmuir at Esquimalt,,48.431666,-123.394774,,,0,,2,22
955,2761,100443,Cook at Summit,,48.445612,-123.349174,,,0,,2,21
956,2803,100488,Cook at Finlayson,,48.448103,-123.349812,,,0,,2,21
957,2865,100553,Maplewood at Tolmie,,48.450564,-123.350499,,,0,,2,21
958,2912,100603,Maplewood at Oakmount,,48.452978,-123.350458,,,0,,2,21
959,2968,100661,Maplewood at Derby,,48.455647,-123.350825,,,0,,2,21
960,2993,100688,Maplewood at Pike,,48.457066,-123.350858,,,0,,2,21
961,3040,100736,Blenkinsop at Tattersall,,48.459222,-123.350821,,,0,,2,21
962,3094,100790,Blenkinsop at Judge,,48.462272,-123.350078,,,0,,2,21
963,3152,100848,Blenkinsop at Union,,48.465218,-123.350012,,,0,,2,21
964,3219,100916,Blenkinsop at Moorgreen,,48.467938,-123.349877,,,0,,2,21
965,3262,100961,Blenkinsop at Lonsdale,,48.471404,-123.350928,,,0,,2,21
966,3267,100966,McKenzie at Blenkinsop,,48.471973,-123.351822,,,0,,2,89
967,3256,100955,McKenzie at Century,,48.471532,-123.354838,,,0,,2,84
968,3224,100921,Borden at McKenzie,,48.468845,-123.360877,,,0,,2,42
969,3157,100854,Borden at Reynolds,,48.466933,-123.360255,,,0,,2,21
970,3222,100919,McKenzie at Quadra,,48.470049,-123.363915,,,0,,2,91
971,3229,100926,McKenzie at Borden,,48.470411,-123.360723,,,0,,2,85
972,3232,100929,Cedar Hill Cross Rd. at Astra,,48.470237,-123.356653,,,0,,2,21
973,3212,100909,Cedar Hill Cross Rd. at Margot,,48.468313,-123.352807,,,0,,2,21
974,3183,100880,Blenkinsop at Downham,,48.466489,-123.349993,,,0,,2,21
975,3139,100835,Blenkinsop at Union,,48.464592,-123.350262,,,0,,2,21
976,3093,100789,Blenkinsop at Judge,,48.462155,-123.350254,,,0,,2,21
977,3036,100732,Blenkinsop at Tattersall,,48.459094,-123.351014,,,0,,2,21
978,2987,100682,Maplewood at Astoria,,48.456603,-123.350986,,,0,,2,21
979,2938,100630,Maplewood at Camrose,,48.454088,-123.350691,,,0,,2,21
980,2888,100578,Maplewood at Ocean View,,48.451875,-123.350902,,,0,,2,21
981,2826,100513,Cook at Slater,,48.449049,-123.350347,,,0,,2,21
982,2791,100474,Cook at Tovido,,48.447476,-123.34982,,,0,,2,21
983,2746,100426,Cook at Summit,,48.445068,-123.349239,,,0,,2,21
984,2583,100259,Dunsmuir at Garrett,,48.430197,-123.396778,,,0,,2,21
985,2601,100277,Dunsmuir at Head,,48.429288,-123.399209,,,0,,2,21
986,2592,100268,Head at Paradise,,48.427897,-123.399291,,,0,,2,21
987,2598,100274,Gore at Lyall,,48.426484,-123.400524,,,0,,2,21
988,2648,100324,Lyall at MacAulay,,48.426933,-123.404819,,,0,,2,21
989,2694,100373,Lampson at Lyall,,48.426773,-123.407851,,,0,,2,21
990,2691,100370,Lampson at Wychbury,,48.42512,-123.408334,,,0,,2,21
991,2695,100374,Lampson at Bewdley,,48.423135,-123.408936,,,0,,2,21
992,2702,100381,Lampson at Munro,,48.421763,-123.409377,,,0,,2,21
993,2736,100415,Munro at Kinver,,48.421964,-123.411816,,,0,,2,21
994,2762,100444,Munro at Plaskett,,48.422528,-123.413786,,,0,,2,21
995,2797,100481,Fraser at Bewdley,,48.424685,-123.415503,,,0,,2,21
996,2784,100467,Fraser at Wychbury,,48.426536,-123.414422,,,0,,2,21
997,2790,100473,Lyall at Fraser,,48.428177,-123.414107,,,0,,2,21
998,2831,100519,Lyall at Admirals,,48.428343,-123.4167,,,0,,2,21
999,2841,100529,Admirals at Esquimalt,,48.429471,-123.416904,,,0,,2,21
1000,2880,100570,Admirals at Naden,,48.433453,-123.417349,,,0,,2,32
1001,2929,100621,Admirals at Lockley,,48.43704,-123.418045,,,0,,2,32
1002,3150,100846,Gorge at Rockwell,,48.45301,-123.419418,,,0,,2,0
1003,3108,100804,Gorge at Inlet,,48.452231,-123.41762,,,0,,2,0
1004,147640,102570,Gorge at Colquitz,,48.451716,-123.416449,,,0,,2,0
1005,3042,100738,Gorge at Austin,,48.450535,-123.411892,,,0,,2,0
1006,3000,100695,Gorge at Dysart,,48.450165,-123.409123,,,0,,2,0
1007,147641,102571,Gorge at Gorge View,,48.449097,-123.40511,,,0,,2,0
1008,2948,100640,Gorge at Gorge View,,48.448312,-123.403122,,,0,,2,0
1009,2886,100576,Tillicum at Gorge,,48.448289,-123.399766,,,0,,2,64
1010,2891,100581,Tillicum at Gorge,,48.448042,-123.400308,,,0,,2,63
1011,2925,100617,Gorge at Gorge View,,48.448518,-123.403227,,,0,,2,0
1012,147642,102572,Gorge at Inez,,48.449258,-123.405204,,,0,,2,0
1013,3004,100699,Gorge at Heath,,48.450178,-123.408739,,,0,,2,0
1014,3044,100740,Gorge at Austin,,48.450559,-123.412252,,,0,,2,0
1015,3083,100779,Gorge at Colquitz,,48.451462,-123.415215,,,0,,2,0
1016,3116,100812,Gorge at Rockwell,,48.452456,-123.417814,,,0,,2,0
1017,3207,100904,UVic Exchange,,48.466202,-123.307949,,,0,,2,63
1018,3404,101107,McKenzie at Vikes Way,,48.468957,-123.312247,,,0,,2,92
1019,3343,101043,McKenzie at Gordon Head,,48.468706,-123.320902,,,0,,2,97
1020,3320,101019,McKenzie at Larchwood,,48.468683,-123.325086,,,0,,2,92
1021,3299,100998,McKenzie at Cedarwood,,48.468698,-123.330536,,,0,,2,92
1022,3273,100972,McKenzie at Shelbourne,,48.468737,-123.33349,,,0,,2,68
1023,3286,100985,McKenzie at Cedar Hill,,48.468764,-123.335887,,,0,,2,63
1024,3260,100959,McKenzie at Oakwinds,,48.468797,-123.340229,,,0,,2,63
1025,3270,100969,"McKenzie, 1420 block",,48.470492,-123.343006,,,0,,2,63
1026,3283,100982,"McKenzie, 1400 block",,48.471601,-123.344655,,,0,,2,63
1027,3280,100979,McKenzie at Braefoot,,48.472163,-123.347571,,,0,,2,63
1028,3230,100927,McKenzie at Borden,,48.470396,-123.362161,,,0,,2,63
1029,3221,100918,McKenzie at Quadra,,48.469931,-123.366016,,,0,,2,68
1030,3194,100891,Saanich at McKenzie,,48.468901,-123.371057,,,0,,2,63
1031,3135,100831,Saanich at Greenridge,,48.466108,-123.368683,,,0,,2,63
1032,3063,100759,Saanich at Lodge,,48.462763,-123.368103,,,0,,2,63
1033,3027,100722,Saanich at Pendene,,48.46072,-123.369099,,,0,,2,63
1034,2951,100643,Saanich at Darwin,,48.457036,-123.369654,,,0,,2,63
1035,2902,100593,Saanich at Blanshard - Uptown,,48.454966,-123.372946,,,0,,2,132
1036,2881,100571,Saanich at Oak - Uptown,,48.453937,-123.374589,,,0,,2,132
1037,2854,100542,Boleskine at Douglas,,48.452736,-123.376403,,,0,,2,63
1038,2850,100538,Harriet at Irma,,48.451937,-123.382066,,,0,,2,63
1039,2851,100539,Tillicum at Gorge Bridge,,48.445459,-123.400937,,,0,,2,63
1040,2823,100509,Tillicum at Gosper,,48.443683,-123.401707,,,0,,2,63
1041,2799,100483,Tillicum at Craigflower,,48.441314,-123.402451,,,0,,2,63
1042,2697,100376,Lampson at Norma,,48.431086,-123.405686,,,0,,2,63
1043,2687,100366,Lampson at Fernhill,,48.431276,-123.405164,,,0,,2,64
1044,2793,100476,Tillicum at Craigflower,,48.442254,-123.401955,,,0,,2,64
1045,2815,100501,Tillicum at Gosper,,48.444031,-123.401376,,,0,,2,64
1046,2844,100532,Tillicum at Gorge Bridge,,48.44579,-123.400491,,,0,,2,64
1047,2809,100495,Harriet at Burnside,,48.449925,-123.38402,,,0,,2,64
1048,2846,100534,Boleskine at Whittier,,48.452096,-123.380564,,,0,,2,64
1049,2847,100535,Boleskine at Douglas,,48.452599,-123.376227,,,0,,2,64
1050,2874,100564,Saanich at Oak - Uptown,,48.453502,-123.374625,,,0,,2,134
1051,2909,100600,Saanich at Blanshard  / Vernon,,48.455323,-123.371551,,,0,,2,134
1052,2953,100645,Saanich at Darwin,,48.45717,-123.369273,,,0,,2,64
1053,3029,100724,Saanich at Pendene,,48.461067,-123.369019,,,0,,2,64
1054,3064,100760,Saanich at Lodge,,48.463894,-123.367622,,,0,,2,64
1055,3140,100836,Saanich at Greenridge,,48.466508,-123.368885,,,0,,2,64
1056,3195,100892,Saanich at McKenzie,,48.469069,-123.370897,,,0,,2,64
1057,3254,100953,McKenzie at Century,,48.471436,-123.354344,,,0,,2,64
1058,3268,100967,McKenzie at Blenkinsop,,48.47189,-123.350474,,,0,,2,70
1059,3276,100975,McKenzie at Braefoot,,48.471743,-123.346429,,,0,,2,64
1060,3274,100973,"McKenzie, 1410 block",,48.470868,-123.343919,,,0,,2,64
1061,3265,100964,McKenzie at Long Gun,,48.469772,-123.342446,,,0,,2,64
1062,3258,100957,McKenzie at Oakwinds,,48.468581,-123.339372,,,0,,2,64
1063,3289,100988,McKenzie at Shelbourne,,48.468523,-123.332067,,,0,,2,97
1064,3300,100999,McKenzie at Cedarwood,,48.468545,-123.328026,,,0,,2,91
1065,3321,101020,McKenzie at Fleet,,48.468539,-123.323629,,,0,,2,91
1066,3337,101037,McKenzie at Gordon Head,,48.46849,-123.320924,,,0,,2,97
1067,4687,104105,McKenzie at Vikes Way,,48.468825,-123.312241,,,0,,2,91
1068,3174,100871,UVic Exchange,,48.465793,-123.308381,,,0,,2,64
1069,20226,101817,Carey at Ravine - Uptown,,48.456104,-123.377444,,,0,,2,93
1070,2950,100642,Vernon at Saanich,,48.456387,-123.371061,,,0,,2,70
1071,3647,101357,Tyndall at Grandview,,48.488809,-123.318256,,,0,,2,99
1072,3599,101308,Tyndall at Hillcrest,,48.48542,-123.320304,,,0,,2,51
1073,3466,101170,Tyndall at San Pedro,,48.478299,-123.32313,,,0,,2,51
1074,3433,101137,Feltham at Tyndall,,48.476099,-123.32366,,,0,,2,51
1075,3402,101105,Feltham at Lambrick,,48.476087,-123.327845,,,0,,2,51
1076,3374,101074,Shelbourne at Feltham,,48.475657,-123.332825,,,0,,2,123
1077,3329,101028,Shelbourne at Glencraig,,48.472316,-123.332776,,,0,,2,123
1078,3296,100995,Shelbourne at University Hghts S.C.,,48.47056,-123.332825,,,0,,2,98
1079,3234,100931,Shelbourne at Mortimer,,48.464655,-123.332961,,,0,,2,96
1080,3201,100898,Shelbourne at Broadmead,,48.462443,-123.333009,,,0,,2,96
1081,3170,100867,Shelbourne at Cedar Hill Cross Rd.,,48.460974,-123.333077,,,0,,2,98
1082,3115,100811,Shelbourne at Pear,,48.458236,-123.333122,,,0,,2,96
1083,3085,100781,Shelbourne at Cedar,,48.455848,-123.333145,,,0,,2,96
1084,3032,100727,Shelbourne at Knight,,48.45293,-123.333207,,,0,,2,96
1085,2990,100685,Shelbourne at McRae,,48.450079,-123.333264,,,0,,2,96
1086,2724,100403,Shelbourne at Denman,,48.432747,-123.333502,,,0,,2,96
1087,2654,100330,Begbie at Shakespeare,,48.429449,-123.335998,,,0,,2,96
1088,2582,100258,Begbie at Elford,,48.427599,-123.341239,,,0,,2,96
1089,4693,104111,Fairfield at Blanshard,,48.421748,-123.364135,,,0,,2,98
1090,3295,100994,Shelbourne at McKenzie,,48.469324,-123.332629,,,0,,2,130
1091,3341,101041,Blair at Birchwood,,48.472852,-123.330884,,,0,,2,48
1092,3365,101065,Blair at Carnegie,,48.472824,-123.326329,,,0,,2,48
1093,3377,101078,Laval at Larchwood,,48.473188,-123.324763,,,0,,2,48
1094,3396,101099,Laval at Loyola,,48.473145,-123.320922,,,0,,2,48
1095,3407,101110,"Laval, 1870 block - Mt. Doug School",,48.472183,-123.317423,,,0,,2,48
1096,3425,101129,Gordon Head at Laval,,48.472541,-123.315247,,,0,,2,48
1097,3469,101174,Gordon Head at Ventura,,48.474518,-123.312973,,,0,,2,48
1098,3516,101224,Gordon Head at Lifton,,48.476181,-123.311062,,,0,,2,48
1099,3547,101256,Gordon Head at Greenlands,,48.477249,-123.309817,,,0,,2,48
1100,3585,101294,Gordon Head at San Juan,,48.479256,-123.307471,,,0,,2,48
1101,3622,101332,Gordon Head at Sage,,48.481407,-123.305079,,,0,,2,48
1102,3639,101349,Ferndale at Houlihan,,48.483447,-123.305503,,,0,,2,48
1103,3649,101359,Ferndale at Grandview,,48.485257,-123.307691,,,0,,2,48
1104,3679,101390,Ferndale at Saltair,,48.486698,-123.307575,,,0,,2,48
1105,3711,101422,Ferndale at Pauls,,48.488412,-123.306993,,,0,,2,48
1106,3720,101431,Ferndale at Vantreight,,48.489367,-123.308447,,,0,,2,48
1107,3715,101426,Ferndale at Pomona,,48.490289,-123.31181,,,0,,2,48
1108,3709,101420,Ferndale at Seawood,,48.491142,-123.315004,,,0,,2,48
1109,3694,101405,Tyndall at Barrie,,48.491,-123.316973,,,0,,2,48
1110,2367,100024,Fairfield at Blanshard - Bay B,,48.421242,-123.363528,,,0,,2,92
1111,2589,100265,Begbie at Elford,,48.427551,-123.34091,,,0,,2,89
1112,2645,100321,Begbie at Vining,,48.429092,-123.336614,,,0,,2,89
1113,2732,100411,Shelbourne at Denman,,48.432813,-123.333287,,,0,,2,89
1114,2964,100656,Shelbourne at North Dairy,,48.448429,-123.333115,,,0,,2,89
1115,3002,100697,Shelbourne at McRae,,48.450884,-123.333058,,,0,,2,89
1116,3035,100731,Shelbourne at Knight,,48.453092,-123.333017,,,0,,2,89
1117,3065,100761,Shelbourne at Derby,,48.454754,-123.332973,,,0,,2,89
1118,3102,100798,Shelbourne at Rowan,,48.457216,-123.332933,,,0,,2,89
1119,3133,100829,Shelbourne at Pear,,48.45882,-123.332887,,,0,,2,89
1120,3191,100888,Shelbourne at Cedar Hill Cross Rd.,,48.461839,-123.332824,,,0,,2,92
1121,3236,100933,Shelbourne at Mortimer,,48.464874,-123.332693,,,0,,2,89
1122,3271,100970,Shelbourne at Garnet,,48.467199,-123.332649,,,0,,2,89
1123,3339,101039,Shelbourne at Blair,,48.473198,-123.332487,,,0,,2,82
1124,3376,101077,Shelbourne at Feltham,,48.475647,-123.332634,,,0,,2,82
1125,3405,101108,Feltham at Lambrick,,48.475965,-123.328023,,,0,,2,50
1126,3419,101123,Feltham at Cabot,,48.475977,-123.325251,,,0,,2,50
1127,3445,101149,Tyndall at Feltham,,48.476772,-123.32296,,,0,,2,50
1128,3513,101220,Tyndall at San Pedro,,48.479017,-123.322947,,,0,,2,50
1129,3565,101274,Tyndall at San Juan,,48.483067,-123.321537,,,0,,2,50
1130,3596,101305,Tyndall at Hillcrest,,48.485233,-123.320231,,,0,,2,50
1131,3645,101355,Tyndall at Grandview,,48.488058,-123.318464,,,0,,2,98
1132,3685,101396,Tyndall at Leabrook,,48.490417,-123.317113,,,0,,2,2
1133,3699,101410,Ferndale at Seawood,,48.491123,-123.315432,,,0,,2,2
1134,3710,101421,Ferndale at Pomona,,48.490087,-123.311596,,,0,,2,2
1135,3717,101428,Ferndale at Vantreight,,48.48922,-123.308406,,,0,,2,2
1136,3712,101423,Ferndale at Pauls,,48.488324,-123.307213,,,0,,2,2
1137,3668,101379,Ferndale at Saltair,,48.486327,-123.307885,,,0,,2,2
1138,3648,101358,Ferndale at Evergreen,,48.485026,-123.30732,,,0,,2,2
1139,3634,101344,Ferndale at Houlihan,,48.483676,-123.305811,,,0,,2,2
1140,3621,101331,Gordon Head at Sage,,48.481396,-123.305335,,,0,,2,2
1141,2359,100014,Gordon Head at San Juan,,48.479341,-123.307627,,,0,,2,2
1142,3537,101246,Gordon Head at Greenlands,,48.477229,-123.31008,,,0,,2,2
1143,3496,101203,Gordon Head at Graduation,,48.475613,-123.312003,,,0,,2,2
1144,3449,101153,Gordon Head at Fairburn,,48.473732,-123.314103,,,0,,2,2
1145,3409,101113,Laval at Gordon Head,,48.47231,-123.31707,,,0,,2,2
1146,3403,101106,Laval at Loyola,,48.473264,-123.321115,,,0,,2,2
1147,3381,101083,Laval at Larchwood,,48.473307,-123.324928,,,0,,2,2
1148,3366,101066,Blair at Carnegie,,48.472952,-123.327082,,,0,,2,2
1149,3345,101045,Blair at Magdelin,,48.47295,-123.330395,,,0,,2,2
1150,3658,101368,Ash at Torquay,,48.49071,-123.321765,,,0,,2,48
1151,3657,101367,Ash at Bissenden,,48.491444,-123.324675,,,0,,2,48
1152,3644,101354,Majestic at Ash,,48.492113,-123.32887,,,0,,2,48
1153,3617,101327,Majestic at Wycliffe,,48.489796,-123.330278,,,0,,2,48
1154,3576,101285,Majestic at Dougall,,48.486906,-123.332025,,,0,,2,48
1155,3539,101248,Majestic at Prairie,,48.484909,-123.333191,,,0,,2,48
1156,3489,101196,Shelbourne at Kenmore,,48.483693,-123.337075,,,0,,2,75
1157,3456,101160,Shelbourne at Arbordale,,48.48175,-123.336564,,,0,,2,75
1158,3426,101130,Shelbourne at Cedarglen,,48.479582,-123.335436,,,0,,2,75
1159,3399,101102,Shelbourne at Torquay,,48.477589,-123.333907,,,0,,2,75
1160,3400,101103,Shelbourne at Torquay,,48.47754,-123.333598,,,0,,2,32
1161,3435,101139,Shelbourne at Cedarglen,,48.480104,-123.335612,,,0,,2,32
1162,3464,101168,Shelbourne at Arbordale,,48.482325,-123.336432,,,0,,2,32
1163,3525,101233,Majestic at Prairie,,48.484605,-123.333192,,,0,,2,3
1164,3590,101299,Majestic at Hawthorne,,48.487895,-123.331223,,,0,,2,3
1165,3619,101329,Majestic at Edgemont,,48.490116,-123.329869,,,0,,2,3
1166,3636,101346,Majestic at Michelle,,48.49142,-123.329088,,,0,,2,3
1167,3651,101361,Ash at Bissenden,,48.491151,-123.32407,,,0,,2,3
1168,3653,101363,Ash at Torquay,,48.490603,-123.321867,,,0,,2,3
1169,121450,102467,Legislature Terminal (Belleville St),,48.420598,-123.368099,,,0,,2,201
1170,2619,100295,Douglas at Summit,,48.442591,-123.369108,,,0,,2,178
1171,2679,100358,Douglas at Finlayson - Mayfair Mall,,48.445498,-123.37083,,,0,,2,275
1172,2774,100456,Douglas at Cloverdale,,48.449862,-123.373526,,,0,,2,275
1173,2866,100554,Douglas at Saanich - Uptown,,48.453278,-123.375531,,,0,,2,205
1174,2671,100349,Carey at Ravine - Uptown,,48.455662,-123.377025,,,0,,2,91
1175,2989,100684,Carey at Harriet,,48.458336,-123.379261,,,0,,2,66
1176,3034,100729,Carey at Huxley,,48.460259,-123.381755,,,0,,2,66
1177,3070,100766,Carey at Seaton,,48.46171,-123.38362,,,0,,2,66
1178,3089,100785,Carey at Tillicum,,48.46281,-123.385027,,,0,,2,66
1179,3143,100839,Carey at Glanford,,48.464928,-123.388131,,,0,,2,33
1180,3176,100873,Carey at Columbine,,48.465927,-123.390507,,,0,,2,33
1181,3210,100907,Carey at McKenzie,,48.467132,-123.392813,,,0,,2,33
1182,3259,100958,Carey at Norwood,,48.469748,-123.395702,,,0,,2,33
1183,3310,101009,Carey at Baker,,48.474023,-123.397098,,,0,,2,33
1184,3354,101054,Carey at Judah,,48.476609,-123.398725,,,0,,2,33
1185,3390,101093,Carey at Oakridge,,48.478897,-123.399375,,,0,,2,33
1186,3430,101134,Ridgebank at Oakridge,,48.481082,-123.398988,,,0,,2,33
1187,3457,101161,Vanalman at Ridgebank,,48.483342,-123.396359,,,0,,2,33
1188,3493,101200,Vanalman at Parkridge,,48.485096,-123.398248,,,0,,2,33
1189,3550,101259,Vanalman at Northridge,,48.487702,-123.397614,,,0,,2,33
1190,3572,101281,Vanalman at Mann,,48.488925,-123.398652,,,0,,2,33
1191,3589,101298,Mann at Wilkinson,,48.489714,-123.400835,,,0,,2,33
1192,3618,101328,Wilkinson at Lindsay,,48.492246,-123.399877,,,0,,2,33
1193,3650,101360,Wilkinson at Greenlea,,48.495363,-123.397251,,,0,,2,33
1194,3686,101397,Wilkinson at Travino Ln,,48.497212,-123.39472,,,0,,2,33
1195,3697,101408,Royal Oak Exch / Commonwealth Place,,48.498928,-123.387518,,,0,,2,40
1196,3678,101389,Wilkinson at Travino Ln,,48.497255,-123.394883,,,0,,2,33
1197,3654,101364,Wilkinson at Greenlea,,48.495277,-123.397856,,,0,,2,33
1198,3614,101324,Wilkinson at Miller,,48.491193,-123.400579,,,0,,2,33
1199,3586,101295,Mann at Wilkinson,,48.489515,-123.400602,,,0,,2,33
1200,3574,101283,Vanalman at Mann,,48.488932,-123.398812,,,0,,2,33
1201,3549,101258,Vanalman at Northridge,,48.487354,-123.397905,,,0,,2,33
1202,3492,101199,Vanalman at Parkridge,,48.484937,-123.398408,,,0,,2,33
1203,3458,101162,Vanalman at Ridgebank,,48.483224,-123.396502,,,0,,2,33
1204,3434,101138,Ridgebank at Springridge,,48.48138,-123.398993,,,0,,2,33
1205,3389,101092,Carey at Oakridge,,48.47873,-123.399532,,,0,,2,33
1206,3359,101059,Carey at Judah,,48.476956,-123.399088,,,0,,2,33
1207,3313,101012,Carey at Baker,,48.473957,-123.397307,,,0,,2,33
1208,3264,100963,Carey at Norwood,,48.469666,-123.395877,,,0,,2,33
1209,3209,100906,Carey at McKenzie,,48.466834,-123.392724,,,0,,2,33
1210,3168,100865,Carey at Columbine,,48.465761,-123.390485,,,0,,2,33
1211,3110,100806,Carey at Tillicum,,48.463677,-123.386433,,,0,,2,66
1212,3084,100780,Carey at Diamond,,48.462394,-123.384792,,,0,,2,66
1213,3053,100749,Carey at Seaton,,48.461223,-123.383266,,,0,,2,66
1214,3031,100726,Carey at Huxley,,48.459635,-123.38121,,,0,,2,66
1215,2772,100454,Douglas at Cloverdale,,48.449645,-123.37376,,,0,,2,277
1216,2669,100347,Douglas at Finlayson - Mayfair Mall,,48.444494,-123.370648,,,0,,2,277
1217,2615,100291,Douglas at Burnside Rd E,,48.442371,-123.369357,,,0,,2,181
1218,147624,102510,Royal Oak Exch - Commonwealth Place,,48.498934,-123.387495,,,0,,2,0
1219,3169,100866,Carey at Ralph / Glanford,,48.464308,-123.387179,,,0,,2,33
1220,3197,100894,Glanford at McKenzie,,48.467638,-123.388087,,,0,,2,33
1221,3241,100940,Glanford at Kenneth,,48.470064,-123.388773,,,0,,2,33
1222,3277,100976,Glanford at Tait,,48.471979,-123.389341,,,0,,2,33
1223,3315,101014,Glanford at Baker,,48.475347,-123.390281,,,0,,2,33
1224,3340,101040,Glanford at Judah,,48.47732,-123.390815,,,0,,2,33
1225,3395,101098,Glanford at Leaside,,48.479986,-123.391131,,,0,,2,33
1226,3416,101120,Glanford at Enterprise,,48.482331,-123.389871,,,0,,2,33
1227,3461,101165,Glanford at Lodi,,48.484634,-123.388648,,,0,,2,33
1228,3491,101198,Glanford at Mann,,48.486291,-123.387765,,,0,,2,33
1229,3485,101191,Glanford at Mann,,48.48636,-123.387916,,,0,,2,35
1230,3455,101159,Glanford at Lodi,,48.484582,-123.388889,,,0,,2,35
1231,3424,101128,Glanford at Enterprise,,48.482525,-123.389987,,,0,,2,35
1232,3384,101087,Glanford at Leaside,,48.480233,-123.391216,,,0,,2,33
1233,3342,101042,Glanford at Judah,,48.477374,-123.391036,,,0,,2,33
1234,3311,101010,Glanford at Baker,,48.475197,-123.3904,,,0,,2,33
1235,3282,100981,Glanford at Agnes,,48.472647,-123.389704,,,0,,2,33
1236,3246,100945,Glanford at O'Connell,,48.470228,-123.38902,,,0,,2,33
1237,3138,100834,Glanford at McKenzie,,48.466271,-123.387913,,,0,,2,33
1238,4097,101821,Fowler at Sayward,,48.538301,-123.38111,,,0,,2,35
1239,4080,101803,Fowler at Menawood,,48.53513,-123.379136,,,0,,2,18
1240,4073,101796,Fowler at Cordova Bay,,48.533286,-123.378215,,,0,,2,18
1241,4045,101767,Cordova Bay at Lochside,,48.528769,-123.372734,,,0,,2,18
1242,4015,101737,Cordova Bay at Sutcliffe,,48.525246,-123.368483,,,0,,2,18
1243,3993,101715,Cordova Bay at Doumac,,48.522717,-123.367591,,,0,,2,18
1244,3958,101680,Cordova Bay at Gloria,,48.519506,-123.367247,,,0,,2,18
1245,3941,101661,Cordova Bay at Haliburton,,48.517524,-123.367075,,,0,,2,18
1246,3868,101581,Cordova Bay at Maxine,,48.513172,-123.364907,,,0,,2,18
1247,3839,101550,Cordova Bay at Sunnygrove,,48.510681,-123.361735,,,0,,2,18
1248,3812,101523,Cordova Bay at Galey,,48.508333,-123.358123,,,0,,2,18
1249,3801,101512,Cordova Bay at Mysty,,48.506156,-123.355391,,,0,,2,18
1250,3770,101481,Royal Oak at Blenkinsop,,48.503667,-123.35516,,,0,,2,47
1251,3743,101454,Royal Oak at McMorran,,48.502558,-123.359398,,,0,,2,47
1252,3729,101440,Royal Oak at Lochside,,48.501351,-123.36261,,,0,,2,47
1253,3702,101413,Royal Oak at Emily Carr,,48.499916,-123.367124,,,0,,2,47
1254,3707,101418,Royal Oak at Amblewood,,48.49988,-123.366909,,,0,,2,44
1255,3735,101446,Royal Oak at Lochside,,48.501758,-123.360856,,,0,,2,44
1256,3761,101472,Royal Oak at Firbank,,48.503322,-123.35642,,,0,,2,44
1257,3803,101514,Cordova Bay at Timber,,48.506828,-123.356117,,,0,,2,17
1258,3818,101529,Cordova Bay at Galey,,48.50851,-123.358105,,,0,,2,17
1259,3843,101554,Cordova Bay at Sunnygrove,,48.510886,-123.361642,,,0,,2,17
1260,3869,101582,Cordova Bay at Maxine,,48.513144,-123.364571,,,0,,2,17
1261,3940,101660,Cordova Bay at Claremont,,48.517772,-123.366945,,,0,,2,17
1262,3968,101690,Cordova Bay at Gloria,,48.520018,-123.367121,,,0,,2,17
1263,3996,101718,Cordova Bay at Doumac,,48.523113,-123.367527,,,0,,2,17
1264,4018,101740,Cordova Bay at Walema,,48.526423,-123.368318,,,0,,2,17
1265,4055,101777,Cordova Bay at Sayward Hill,,48.530401,-123.374313,,,0,,2,17
1266,4066,101788,Cordova Bay at Fowler,,48.5322,-123.376766,,,0,,2,17
1267,4062,101784,Cordova Bay at Hill Rise,,48.530675,-123.382234,,,0,,2,17
1268,4063,101785,Cordova Bay at Alderley,,48.530741,-123.38403,,,0,,2,17
1269,4099,101823,Hwy 17 at Sayward,,48.536718,-123.388917,,,0,,2,113
1270,4101,101825,Sayward at Fowler,,48.538649,-123.383355,,,0,,2,17
1271,2350,100003,Legislature Terminal,,48.419147,-123.368957,,,0,,2,2
1272,2984,100679,Vernon at Ravine - Saanich Mun. Hall,,48.458947,-123.376494,,,0,,2,95
1273,2349,100002,Legislature Terminal,,48.419742,-123.369014,,,0,,2,176
1274,3689,101400,Royal Oak Exch / Commonwealth Place,,48.498107,-123.388966,,,0,,2,22
1275,3727,101438,Elk Lake Dr. at Commonwealth Place,,48.501191,-123.386186,,,0,,2,45
1276,3766,101477,Elk Lake at Marsett,,48.504009,-123.385644,,,0,,2,45
1277,3827,101538,Elk Lake Dr. at Beaver Lake access,,48.50953,-123.38449,,,0,,2,45
1278,78781,102172,Haliburton at Del Monte,,48.514145,-123.37868,,,0,,2,11
1279,3942,101663,Claremont at Cambria Wood,,48.517924,-123.376452,,,0,,2,11
1280,3922,101641,Wesley at Strangcrest - Claremont School,,48.515971,-123.374233,,,0,,2,11
1281,78780,102171,Haliburton at Wesley,,48.514289,-123.375187,,,0,,2,11
1282,78782,102173,Haliburton at Del Monte,,48.514324,-123.378969,,,0,,2,11
1283,3881,101596,Elk Lake Dr at Hwy 17,,48.513365,-123.384589,,,0,,2,82
1284,3829,101540,Elk Lake Dr. at Beaver Lake access,,48.509249,-123.38474,,,0,,2,82
1285,3767,101478,Elk Lake at Marsett,,48.503309,-123.385896,,,0,,2,82
1286,3728,101439,Elk Lake Dr. at Commonwealth Place,,48.500403,-123.387066,,,0,,2,82
1287,147620,102482,Royal Oak Exch - Commonwealth Place,,48.498082,-123.388983,,,0,,2,0
1288,3045,100741,UVic Exchange,,48.46602,-123.30836,,,0,,2,56
1289,3503,101210,Shelbourne at Kenmore,,48.484441,-123.336863,,,0,,2,29
1290,3559,101268,Shelbourne at San Juan,,48.486907,-123.337376,,,0,,2,29
1291,3592,101301,Shelbourne at Robinwood,,48.489351,-123.337783,,,0,,2,29
1292,3676,101387,Cordova Bay at Ash,,48.495895,-123.335863,,,0,,2,29
1293,3765,101476,Cordova Bay at Westbank,,48.502526,-123.343999,,,0,,2,29
1294,3774,101485,Cordova Bay at Lavinia,,48.503439,-123.349576,,,0,,2,29
1295,3772,101483,Cordova Bay at Lavinia,,48.503295,-123.349531,,,0,,2,27
1296,3764,101475,"Cordova Bay, 4560 block",,48.501705,-123.343322,,,0,,2,27
1297,3672,101383,Cordova Bay at Ash,,48.495838,-123.336051,,,0,,2,27
1298,3583,101292,Shelbourne at Robinwood,,48.488977,-123.338073,,,0,,2,27
1299,3541,101250,Shelbourne at Elnido,,48.486354,-123.337629,,,0,,2,27
1300,3122,100818,Westhills Exchange,,48.445761,-123.532139,,,0,,2,60
1301,2484,100158,Langford Pkwy at Lakepoint Way,,48.445109,-123.533585,,,0,,2,51
1302,3879,101593,Langford Pkwy at Langford Lake Rd.,,48.443744,-123.52695,,,0,,2,48
1303,3838,101549,Langford Pkwy at City Centre Park,,48.443369,-123.51966,,,0,,2,48
1304,4028,101750,Langford Pkwy at Hull's Corner,,48.442845,-123.514621,,,0,,2,48
1305,3906,101625,Jacklin at Station,,48.445425,-123.508604,,,0,,2,168
1306,3901,101620,Jacklin at Orono,,48.447996,-123.507118,,,0,,2,72
1307,3899,101618,Goldstream at Jacobson,,48.450222,-123.504887,,,0,,2,180
1308,3863,101574,Goldstream at Peatt,,48.44944,-123.50159,,,0,,2,84
1309,3828,101539,Goldstream at Bryn Maur,,48.448097,-123.497409,,,0,,2,154
1310,3809,101520,Veterans Memorial Pkwy at Station,,48.445974,-123.496517,,,0,,2,19
1311,3842,101553,Veterans Memorial Pkwy at Langford Pkwy,,48.440952,-123.503029,,,0,,2,17
1312,3798,101509,Kelly at Pickford,,48.436791,-123.498586,,,0,,2,34
1313,3775,101486,Kelly at Metchosin,,48.435826,-123.494763,,,0,,2,34
1314,3749,101460,Kelly at Sooke Rd.,,48.43517,-123.492203,,,0,,2,34
1315,3726,101437,Sooke Rd. at Ledsham,,48.43536,-123.489858,,,0,,2,67
1316,3708,101419,Sooke Rd. at Acacia,,48.437041,-123.486598,,,0,,2,67
1317,3601,101310,Sooke Rd. at Aldeane - Royal Roads U.,,48.439995,-123.476686,,,0,,2,70
1318,3546,101255,Sooke Rd. at Goldstream,,48.441545,-123.470038,,,0,,2,70
1319,3532,101241,Colwood Exchange - Westshore Rec Ctr,,48.445877,-123.466523,,,0,,2,145
1320,3542,101251,Island Hwy at Wilfert - Elements Casino,,48.45257,-123.462784,,,0,,2,145
1321,3553,101262,Island Hwy at Six Mile Rd.,,48.45876,-123.457571,,,0,,2,157
1322,3382,101085,Helmcken at Knockan,,48.472619,-123.418482,,,0,,2,17
1323,3392,101095,Helmcken at Lidgate,,48.47428,-123.415552,,,0,,2,19
1324,3385,101088,Helmcken at Knockan,,48.472083,-123.418966,,,0,,2,19
1325,130953,102513,Burnside Rd W at Watkiss Way,,48.464761,-123.44632,,,0,,2,29
1326,3545,101254,Island Hwy at Six Mile Rd.,,48.458665,-123.458124,,,0,,2,153
1327,3551,101260,Island Hwy at Wilfert - Elements Casino,,48.451628,-123.463826,,,0,,2,143
1328,3536,101245,Colwood Exchange - Westshore Rec Ctr,,48.444256,-123.467907,,,0,,2,173
1329,3552,101261,Sooke Rd. at Goldstream,,48.441634,-123.470282,,,0,,2,64
1330,3615,101325,Sooke Rd. at Aldeane - Royal Roads U.,,48.439776,-123.478112,,,0,,2,64
1331,3714,101425,Sooke Rd. at Mount View,,48.436723,-123.487454,,,0,,2,64
1332,3732,101443,Sooke Rd. at Kelly,,48.435456,-123.48996,,,0,,2,64
1333,3741,101452,Kelly at Sooke Rd.,,48.435242,-123.491996,,,0,,2,34
1334,3777,101488,Kelly at Metchosin,,48.436249,-123.495948,,,0,,2,34
1335,3808,101519,Kelly at Pickford,,48.437188,-123.499651,,,0,,2,34
1336,3846,101557,Veterans Memorial Pkwy at Kelly,,48.439054,-123.504116,,,0,,2,24
1337,3146,100842,Veteran's Memorial Pkwy at Langford Pkwy,,48.440989,-123.50256,,,0,,2,19
1338,3835,101546,Goldstream at Claude,,48.448925,-123.499008,,,0,,2,157
1339,3882,101597,Goldstream at Jacobson,,48.450147,-123.504286,,,0,,2,138
1340,3902,101621,Jacklin at Lequesne,,48.449698,-123.506315,,,0,,2,30
1341,3905,101624,Jacklin at Orono,,48.447388,-123.507661,,,0,,2,30
1342,3913,101632,Jacklin at Dunford,,48.443968,-123.50975,,,0,,2,276
1343,3986,101708,Langford Pkwy at Hull's Corner,,48.443012,-123.514584,,,0,,2,48
1344,3845,101556,Langford Pkwy at City Centre Park,,48.443542,-123.520544,,,0,,2,48
1345,3854,101565,Langford Pkwy at Langford Lake Rd,,48.443953,-123.526911,,,0,,2,48
1346,3758,101469,Colwood Exch / Westshore Rec Ctr,,48.44511,-123.466357,,,0,,2,7
1347,3502,101209,Belmont at Ocean Blvd,,48.440518,-123.466713,,,0,,2,3
1348,3468,101173,Belmont at Egerton,,48.43881,-123.465545,,,0,,2,3
1349,3421,101125,Belmont at Lascelles,,48.437263,-123.461874,,,0,,2,3
1350,3412,101116,College at Thetis,,48.436715,-123.461226,,,0,,2,3
1351,3561,101270,Royal Roads University / Hatley Castle,,48.435386,-123.471545,,,0,,2,3
1352,3796,101507,Goldstream at Granderson,,48.446916,-123.494078,,,0,,2,13
1353,3745,101456,Goldstream at Grainger,,48.446249,-123.487459,,,0,,2,109
1354,3667,101378,Goldstream at Kristina,,48.445256,-123.48108,,,0,,2,109
1355,3620,101330,Goldstream at Wale,,48.443576,-123.475049,,,0,,2,109
1356,3570,101279,Goldstream at Sooke Rd.,,48.44253,-123.471399,,,0,,2,109
1357,3477,101183,Island Hwy at Knollwood,,48.45974,-123.44919,,,0,,2,13
1358,3428,101132,Island Hwy at Prince Robert,,48.45923,-123.445372,,,0,,2,13
1359,3387,101090,Island Hwy at Jedburgh,,48.457771,-123.443626,,,0,,2,13
1360,3136,100832,Admirals at Hallowell,,48.447083,-123.426529,,,0,,2,13
1361,3357,101057,Island Hwy at Helmcken,,48.456385,-123.441541,,,0,,2,11
1362,3388,101091,Island Hwy at Jedburgh,,48.457748,-123.44343,,,0,,2,11
1363,3431,101135,Island Hwy at Prince Robert,,48.459259,-123.445126,,,0,,2,11
1364,3476,101182,Island Hwy at Knollwood,,48.460197,-123.450335,,,0,,2,11
1365,3566,101275,Goldstream at Sooke Rd.,,48.442621,-123.471179,,,0,,2,109
1366,3616,101326,Goldstream at Wale,,48.443992,-123.475923,,,0,,2,109
1367,3669,101380,Goldstream at Kristina,,48.445521,-123.481647,,,0,,2,109
1368,3756,101467,Goldstream at Grainger,,48.446423,-123.487724,,,0,,2,109
1369,3802,101513,Goldstream at Aldwynd,,48.447098,-123.494253,,,0,,2,11
1370,146467,101237,Colwood Exchange - Westshore Rec Ctr,,48.445003,-123.466339,,,0,,2,0
1371,2676,100355,Legislature Terminal,,48.418823,-123.368966,,,0,,2,16
1372,3014,100709,Trans-Canada Hwy at Tillicum,,48.458419,-123.392016,,,0,,2,114
1373,3121,100817,Trans-Canada Hwy at McKenzie / Admirals,,48.459855,-123.403507,,,0,,2,114
1374,3363,101063,Trans-Canada Hwy at Helmcken,,48.464514,-123.431,,,0,,2,118
1375,3886,101602,Millstream at Sunshine Tce,,48.461298,-123.497656,,,0,,2,45
1376,3918,101637,Millstream at Treanor,,48.463813,-123.499216,,,0,,2,45
1377,3919,101638,Treanor at Belair,,48.464546,-123.498805,,,0,,2,37
1378,3887,101603,Treanor at Selwyn,,48.464658,-123.495556,,,0,,2,37
1379,3893,101609,Bellamy at Phelps,,48.466735,-123.49399,,,0,,2,37
1380,3873,101586,Phelps at Sabina,,48.46682,-123.491572,,,0,,2,38
1381,3844,101555,Phelps at Heather Ann,,48.467301,-123.487038,,,0,,2,38
1382,3833,101544,Treanor at Rockcliffe,,48.465601,-123.486799,,,0,,2,38
1383,3866,101577,Treanor at Cottier,,48.465582,-123.491107,,,0,,2,38
1384,3878,101592,Treanor at Bellamy,,48.464922,-123.4937,,,0,,2,38
1385,3904,101623,Treanor at Hoylake,,48.464734,-123.49715,,,0,,2,38
1386,3927,101646,Treanor at Belair,,48.464631,-123.499208,,,0,,2,38
1387,3978,101700,Treanor at Camli,,48.466248,-123.505437,,,0,,2,3
1388,3992,101714,Treanor at Misty,,48.467053,-123.507031,,,0,,2,3
1389,3998,101720,Setchfield at Treanor,,48.466606,-123.508513,,,0,,2,3
1390,3976,101698,Setchfield at High Forest,,48.463261,-123.507034,,,0,,2,3
1391,3987,101709,Florence Lake at Setchfield,,48.459369,-123.511353,,,0,,2,3
1392,3973,101695,Florence Lake at Rhapsody,,48.458018,-123.509993,,,0,,2,3
1393,3953,101674,Florence Lake at Citation,,48.455591,-123.507988,,,0,,2,3
1394,3946,101667,McCallum at Springboard,,48.453984,-123.509646,,,0,,2,18
1395,4668,104086,McCallum at Shell Gas Station,,48.453222,-123.511323,,,0,,2,18
1396,4688,104106,McCallum at Savory,,48.455498,-123.515405,,,0,,2,18
1397,4667,104085,Hwy 1 n/b ramp at Leigh,,48.455559,-123.520219,,,0,,2,3
1398,4108,101833,Amy at Westshore Pkwy,,48.457883,-123.541047,,,0,,2,22
1399,4129,101854,Amy at Sooke Lake Rd,,48.458866,-123.545756,,,0,,2,22
1400,4138,101864,Sooke Lake Rd at Amy,,48.460055,-123.549371,,,0,,2,22
1401,4141,101867,Sooke Lake Rd at Corrine,,48.459806,-123.550737,,,0,,2,22
1402,4146,101872,Humpback at Rock Hill,,48.458859,-123.553377,,,0,,2,22
1403,4140,101866,Mt Wells at Bolanne,,48.457096,-123.551274,,,0,,2,22
1404,4137,101863,Mt Wells at Sunvale,,48.458582,-123.549132,,,0,,2,22
1405,4139,101865,Sooke Lake Rd at Amy,,48.459956,-123.549105,,,0,,2,22
1406,4125,101850,Amy at Sooke Lake Rd,,48.458641,-123.545601,,,0,,2,22
1407,3780,101491,Westshore Pkwy at Kettle Lake Dr.,,48.453697,-123.541712,,,0,,2,19
1408,4013,101735,Westshore Pkwy at Landing Lane,,48.451662,-123.541604,,,0,,2,19
1409,3956,101678,Westshore Pkwy at Westhills Dr,,48.44709,-123.539766,,,0,,2,19
1410,3966,101688,Langford Pkwy at Langford Lake Rd,,48.444863,-123.535887,,,0,,2,21
1411,3071,100767,Westhills Exchange,,48.445667,-123.531893,,,0,,2,19
1412,3907,101626,Langford Pkwy at Langford Lake Rd.,,48.445131,-123.535926,,,0,,2,21
1413,4010,101732,Westshore Pkwy at Westhills Dr,,48.448157,-123.539836,,,0,,2,19
1414,4048,101770,Westshore Pkwy at Landing Lane,,48.451709,-123.541285,,,0,,2,19
1415,3778,101489,Westshore Pkwy at Kettle Lake Dr.,,48.454131,-123.541414,,,0,,2,19
1416,4096,101820,Westshore Pkwy at Amy,,48.456716,-123.538987,,,0,,2,3
1417,4689,104107,McCallum at Savory,,48.455444,-123.5156,,,0,,2,20
1418,3955,101676,McCallum at Hwy 1 n/b ramp,,48.453513,-123.509693,,,0,,2,20
1419,3949,101670,Florence Lake at Citation,,48.455904,-123.50785,,,0,,2,20
1420,3972,101694,Florence Lake at Rhapsody,,48.458212,-123.509954,,,0,,2,20
1421,3984,101706,Florence Lake at Setchfield,,48.459761,-123.511285,,,0,,2,20
1422,3979,101701,Setchfield at Martin,,48.460749,-123.509658,,,0,,2,20
1423,3975,101697,Setchfield at Buckler,,48.462189,-123.5078,,,0,,2,20
1424,3983,101705,"Setchfield, 2360 block",,48.465583,-123.507538,,,0,,2,20
1425,3995,101717,Setchfield at Treanor,,48.466503,-123.50827,,,0,,2,20
1426,3977,101699,Treanor at Camli,,48.465899,-123.505181,,,0,,2,20
1427,4694,104112,Millstream at Treanor,,48.463847,-123.499707,,,0,,2,64
1428,3931,101651,Millstream at Sunshine Tce,,48.461396,-123.498101,,,0,,2,64
1429,3892,101608,Millstream at McCallum,,48.459594,-123.497502,,,0,,2,49
1430,3355,101055,Trans-Canada Hwy at Helmcken,,48.463412,-123.43165,,,0,,2,120
1431,78647,102034,Trans-Canada Hwy at McKenzie / Admirals,,48.459493,-123.406634,,,0,,2,115
1432,3015,100710,Trans-Canada Hwy at Tillicum,,48.457896,-123.389904,,,0,,2,115
1433,2863,100551,Douglas at Boleskine - Uptown,,48.453216,-123.375901,,,0,,2,115
1434,3752,101463,Sooke Rd. at Ridley,,48.434271,-123.493082,,,0,,2,51
1435,3769,101480,Metchosin at Cedarcrest,,48.431343,-123.495312,,,0,,2,43
1436,3734,101445,Metchosin at Laren,,48.42787,-123.492592,,,0,,2,43
1437,3716,101427,Metchosin at Wishart,,48.426052,-123.490367,,,0,,2,32
1438,4100,101824,Metchosin Rd at Raynerwood Pl,,48.423063,-123.487888,,,0,,2,32
1439,3665,101376,Metchosin at Sangster,,48.421361,-123.486751,,,0,,2,32
1440,3640,101350,Metchosin at Farview,,48.419242,-123.484754,,,0,,2,32
1441,3629,101339,Metchosin at Daniel,,48.417901,-123.48382,,,0,,2,32
1442,3633,101343,Benhomer at Swindell,,48.417197,-123.48441,,,0,,2,31
1443,3687,101398,Benhomer at Painter,,48.418266,-123.488761,,,0,,2,31
1444,3706,101417,Painter at Bidwell,,48.417053,-123.489846,,,0,,2,31
1445,3736,101447,"Dressler, 430 block",,48.416541,-123.4924,,,0,,2,31
1446,3755,101466,Wishart at Webb,,48.417908,-123.495103,,,0,,2,41
1447,3753,101464,Wishart at Stornoway,,48.418819,-123.495007,,,0,,2,41
1448,3771,101482,Stornoway at Strathdee,,48.418581,-123.496409,,,0,,2,31
1449,3787,101498,Stornoway at Rothnie,,48.418975,-123.499481,,,0,,2,31
1450,3804,101515,Stornoway at Cairndale,,48.420985,-123.501589,,,0,,2,31
1451,3896,101612,Latoria at Castlewood,,48.409357,-123.511463,,,0,,2,20
1452,3932,101652,Latoria at Kelly Dawn,,48.411059,-123.51523,,,0,,2,20
1453,3948,101669,Latoria at Desmond,,48.411569,-123.517064,,,0,,2,9
1454,3971,101693,Latoria at Klahanie,,48.412927,-123.520282,,,0,,2,9
1455,3994,101716,"Latoria, 850 block",,48.414687,-123.52463,,,0,,2,9
1456,4037,101759,Latoria at Happy Valley,,48.416141,-123.532831,,,0,,2,9
1457,4040,101762,Happy Valley at Latoria,,48.416505,-123.533014,,,0,,2,22
1458,4039,101761,Happy Valley at Luxton,,48.41959,-123.532917,,,0,,2,22
1459,4038,101760,Happy Valley at Flatman,,48.423075,-123.532762,,,0,,2,22
1460,4024,101746,Happy Valley at Acadian,,48.427638,-123.530083,,,0,,2,22
1461,4264,102006,Happy Valley at Walfred,,48.430816,-123.527969,,,0,,2,6
1462,4002,101724,Sooke Rd. at Happy Valley,,48.4328,-123.524023,,,0,,2,44
1463,3985,101707,Sooke Rd. at Willshire,,48.432616,-123.521674,,,0,,2,44
1464,3961,101683,Sooke Rd. at Ayton,,48.433252,-123.518489,,,0,,2,44
1465,3934,101654,Jacklin at Sunridge Valley,,48.435479,-123.514285,,,0,,2,45
1466,3921,101640,Jacklin at Terlane - Belmont Market,,48.438933,-123.512339,,,0,,2,45
1467,3911,101630,Jacklin at Rex - Westshore Town Ctr,,48.441616,-123.510788,,,0,,2,71
1468,4645,102443,Langford Pkwy at Jacklin,,48.442786,-123.509628,,,0,,2,143
1469,4644,102442,Phipps at Langford Pkwy,,48.442823,-123.504323,,,0,,2,242
1470,3823,101534,Langford Exchange,,48.44546,-123.505031,,,0,,2,127
1471,3916,101635,Jacklin at Jenkins - Westshore T.C.,,48.440799,-123.511488,,,0,,2,60
1472,3926,101645,Jacklin at Terlane - Belmont Market,,48.438686,-123.512726,,,0,,2,44
1473,3938,101658,Jacklin at Sunridge Valley,,48.435475,-123.514508,,,0,,2,44
1474,3951,101672,Sooke Rd. at Jacklin,,48.434042,-123.516568,,,0,,2,42
1475,3969,101691,Sooke Rd. at Ayton,,48.43329,-123.518934,,,0,,2,42
1476,3982,101704,Sooke Rd. at Willshire,,48.432734,-123.52181,,,0,,2,42
1477,4259,102001,Happy Valley at Walfred,,48.431304,-123.527571,,,0,,2,6
1478,4026,101748,Happy Valley at Huckleberry,,48.427494,-123.53037,,,0,,2,22
1479,4042,101764,Happy Valley at Flatman,,48.422612,-123.533064,,,0,,2,22
1480,4044,101766,Happy Valley at Luxton,,48.418627,-123.53311,,,0,,2,22
1481,4046,101768,Happy Valley at Latoria,,48.416318,-123.533248,,,0,,2,22
1482,3997,101719,"Latoria, 860 block",,48.414583,-123.524708,,,0,,2,12
1483,3974,101696,Latoria at Klahanie,,48.413213,-123.521256,,,0,,2,12
1484,3944,101665,Latoria at Desmond,,48.411312,-123.516709,,,0,,2,22
1485,3928,101647,Latoria at Kelly Dawn,,48.41075,-123.5147,,,0,,2,22
1486,3897,101613,Latoria at Castlewood,,48.409201,-123.51149,,,0,,2,22
1487,3821,101532,Cairndale at Veterans Memorial Pkwy,,48.421289,-123.503623,,,0,,2,33
1488,3784,101495,Cairndale at Brenda,,48.420346,-123.499244,,,0,,2,33
1489,3776,101487,Cairndale at Willowdale,,48.419879,-123.497229,,,0,,2,33
1490,4671,104089,Wishart at Stornaway,,48.419,-123.49529,,,0,,2,44
1491,3763,101474,Wishart at Dressler,,48.417321,-123.495634,,,0,,2,44
1492,3747,101458,Dressler at Wishart,,48.416852,-123.494453,,,0,,2,33
1493,3730,101441,"Dressler, 440 block",,48.416448,-123.492521,,,0,,2,33
1494,3698,101409,Painter at Sue Mar,,48.417194,-123.489557,,,0,,2,33
1495,3674,101385,Benhomer at Tibbitt,,48.417808,-123.487501,,,0,,2,33
1496,3626,101336,Benhomer at Metchosin,,48.417053,-123.48341,,,0,,2,33
1497,3628,101338,Metchosin at Farview,,48.418505,-123.48399,,,0,,2,34
1498,3661,101371,Metchosin at Painter,,48.421875,-123.486833,,,0,,2,34
1499,3677,101388,Metchosin at Raynerwood,,48.424185,-123.488286,,,0,,2,34
1500,3725,101436,Metchosin at Wishart,,48.427208,-123.491574,,,0,,2,44
1501,3739,101450,Metchosin at Laren,,48.42806,-123.492578,,,0,,2,44
1502,3762,101473,Metchosin at Eiderwood,,48.43078,-123.494893,,,0,,2,44
1503,3768,101479,Metchosin at Trout,,48.43199,-123.495355,,,0,,2,44
1504,3742,101453,Sooke Rd. at Heatherly,,48.434398,-123.49229,,,0,,2,44
1505,3862,101573,Langford Exchange,,48.445327,-123.505752,,,0,,2,168
1506,3909,101628,Kelly at Merchant Way,,48.439186,-123.510288,,,0,,2,17
1507,78787,102179,McKenzie at Hwy 1 n/b ramp,,48.460501,-123.403708,,,0,,2,6
1508,78784,102175,McKenzie at Burnside Rd W,,48.462606,-123.401482,,,0,,2,6
1509,3185,100882,McKenzie at Carey,,48.466467,-123.390576,,,0,,2,6
1510,3179,100876,McKenzie at Glanford,,48.466924,-123.386829,,,0,,2,6
1511,3180,100877,"McKenzie, 660 block",,48.467513,-123.382264,,,0,,2,6
1512,3186,100883,McKenzie at Douglas / Hwy 17 n/b ramp,,48.468067,-123.379397,,,0,,2,6
1513,3196,100893,McKenzie at Nelthorpe,,48.468846,-123.373559,,,0,,2,6
1514,3181,100878,UVic Exchange,,48.465933,-123.308221,,,0,,2,11
1515,3203,100900,McKenzie at Nelthorpe,,48.468918,-123.374247,,,0,,2,5
1516,3193,100890,McKenzie at Douglas / Hwy 17 n/b ramp,,48.468447,-123.378438,,,0,,2,5
1517,3187,100884,McKenzie at Willowbrook,,48.467474,-123.384611,,,0,,2,5
1518,3190,100887,McKenzie at Glanford,,48.466898,-123.389204,,,0,,2,5
1519,3202,100899,McKenzie at Carey,,48.46651,-123.393512,,,0,,2,5
1520,78783,102174,McKenzie at Burnside Rd W,,48.462595,-123.401917,,,0,,2,5
1521,4109,101834,Bear Mountain Pkwy at Country Club Way,,48.475927,-123.530712,,,0,,2,57
1522,4081,101804,Bear Mountain Pkwy at Nicklaus Dr,,48.475082,-123.522157,,,0,,2,29
1523,4067,101789,Bear Mountain Pkwy at Players Dr,,48.474316,-123.517945,,,0,,2,29
1524,4016,101738,Bear Mountain Pkwy at Echo Valley,,48.468988,-123.512249,,,0,,2,29
1525,3999,101721,Bear Mountain Pkwy at Longspur,,48.470232,-123.508065,,,0,,2,29
1526,3981,101703,Millstream at All Fun Rec/Western Spdwy,,48.470184,-123.503194,,,0,,2,29
1527,3960,101682,Millstream at Goldie,,48.467422,-123.501884,,,0,,2,29
1528,3861,101572,Veterans Memorial Pkwy at Peatt,,48.454512,-123.496232,,,0,,2,31
1529,3814,101525,Veterans Memorial Pkwy at Percy,,48.450421,-123.495458,,,0,,2,31
1530,4127,101852,Phipps at Kelly - Westshore Town Ctr,,48.44061,-123.505818,,,0,,2,30
1531,3851,101562,Veterans Memorial Pkwy at Kelly,,48.437466,-123.504795,,,0,,2,30
1532,3816,101527,Veterans Memorial Pkwy at Allandale,,48.428039,-123.502348,,,0,,2,30
1533,3630,101340,Lagoon at Christopher,,48.420192,-123.484078,,,0,,2,58
1534,3587,101296,Milburn at Hatley,,48.419426,-123.480675,,,0,,2,58
1535,3567,101276,Milburn at Hockering,,48.418197,-123.479094,,,0,,2,58
1536,4449,102216,Milburn at Aloha,,48.416974,-123.476511,,,0,,2,58
1537,3521,101229,Lagoon at Ocean,,48.416964,-123.472531,,,0,,2,58
1538,3540,101249,Lagoon at Lanai,,48.418507,-123.475346,,,0,,2,58
1539,3564,101273,Lagoon at Goldfinch,,48.419091,-123.476608,,,0,,2,58
1540,3594,101303,Lagoon at Heatherbell,,48.420793,-123.480233,,,0,,2,58
1541,3627,101337,Lagoon at Christopher,,48.420318,-123.484153,,,0,,2,58
1542,4690,104108,Royal Roads University,,48.437476,-123.475542,,,0,,2,58
1543,3524,101232,Colwood Exchange - Westshore Rec Ctr,,48.444953,-123.466198,,,0,,2,59
1544,3820,101531,Veterans Memorial Pkwy at Cairndale,,48.421913,-123.503811,,,0,,2,28
1545,130952,102512,Veterans Memorial Pkwy at Allandale,,48.427625,-123.501802,,,0,,2,28
1546,3819,101530,Veterans Memorial Pkwy at Sooke Rd.,,48.430479,-123.502836,,,0,,2,28
1547,3856,101567,Kelly at Veterans Memorial Pkwy,,48.438305,-123.505383,,,0,,2,38
1548,4121,101846,Phipps at Kelly - Westshore Town Ctr,,48.44056,-123.505629,,,0,,2,28
1549,3831,101542,Langford Exchange,,48.445535,-123.504678,,,0,,2,226
1550,3810,101521,Veterans Memorial Pkwy at Hoffman,,48.450247,-123.49507,,,0,,2,30
1551,3824,101535,Veterans Memorial Pkwy at Marlisa,,48.452513,-123.495201,,,0,,2,30
1552,3950,101671,Millstream at Hoylake,,48.465892,-123.501068,,,0,,2,28
1553,3980,101702,Millstream at All Fun Rec/Western Spdwy,,48.470768,-123.503977,,,0,,2,28
1554,4000,101722,Bear Mountain Pkwy at Longspur,,48.470353,-123.508532,,,0,,2,28
1555,4019,101741,Bear Mountain Pkwy at Echo Valley,,48.469114,-123.512163,,,0,,2,28
1556,4041,101763,Bear Mountain Pkwy at Stone Gate,,48.472621,-123.512848,,,0,,2,28
1557,4068,101790,Bear Mountain Pkwy at Players Dr,,48.474451,-123.517746,,,0,,2,28
1558,4084,101807,Bear Mountain Pkwy at Nicklaus Dr,,48.4753,-123.523397,,,0,,2,28
1559,2480,100154,Metchosin at Kenning,,48.413938,-123.483576,,,0,,2,1
1560,4380,102132,Latoria at Dunlin,,48.408379,-123.487997,,,0,,2,6
1561,4570,102347,Latoria at R. Hesjedal - Royal Bay Sch,,48.407305,-123.491611,,,0,,2,6
1562,3800,101511,Latoria at Wishart,,48.406474,-123.500983,,,0,,2,6
1563,3797,101508,Wishart at Bunker,,48.409405,-123.499867,,,0,,2,10
1564,3785,101496,"Wishart, 3480 block",,48.411779,-123.498567,,,0,,2,10
1565,3759,101470,Wishart at Rockwood,,48.416105,-123.495597,,,0,,2,10
1566,4672,104090,Wishart at Rockwood,,48.415528,-123.495432,,,0,,2,11
1567,4673,104091,Wishart 3480 block,,48.411812,-123.49877,,,0,,2,11
1568,4674,104092,Wishart at Bunker,,48.408854,-123.500439,,,0,,2,11
1569,4572,102349,Latoria at R. Hesjedal - Royal Bay Sch,,48.407688,-123.49028,,,0,,2,9
1570,4566,102343,Latoria at Dunlin,,48.407964,-123.48717,,,0,,2,9
1571,145227,102546,Metchosin at Latoria,,48.408188,-123.485709,,,0,,2,1
1572,2464,100136,Metchosin at Cotlow,,48.414458,-123.483329,,,0,,2,1
1573,3582,101291,Six Mile Rd. at Damon,,48.457584,-123.462469,,,0,,2,10
1574,104673,102193,Six Mile Rd. at Chilco,,48.459558,-123.465344,,,0,,2,22
1575,40015,101373,Thetis Lake Parking Lot,,48.462878,-123.467407,,,0,,2,22
1576,104672,102192,Six Mile Rd. at Chilco,,48.45908,-123.465263,,,0,,2,22
1577,3605,101315,Atkins at Six Mile Rd.,,48.458234,-123.464815,,,0,,2,10
1578,3610,101320,Atkins at Anya,,48.456461,-123.467399,,,0,,2,10
1579,3603,101312,Atkins at Myra,,48.452545,-123.468958,,,0,,2,10
1580,3600,101309,Atkins at Country,,48.450028,-123.470419,,,0,,2,10
1581,3632,101342,"Atkins, 370 block",,48.447651,-123.476963,,,0,,2,10
1582,3663,101374,Atkins at Crystalview,,48.450052,-123.478116,,,0,,2,10
1583,3746,101457,Selwyn at Selwyn Oaks,,48.450464,-123.485839,,,0,,2,10
1584,3760,101471,Selwyn at Downhome,,48.452417,-123.486045,,,0,,2,10
1585,3781,101492,Selwyn at Leckfield,,48.455701,-123.486679,,,0,,2,10
1586,3799,101510,Selwyn at Wentwich,,48.45669,-123.488882,,,0,,2,10
1587,3830,101541,Strandlund at Duncan,,48.456838,-123.492815,,,0,,2,10
1588,2572,100247,Strandlund at Peatt,,48.455662,-123.496286,,,0,,2,10
1589,3857,101568,Peatt at Arncote,,48.454577,-123.49765,,,0,,2,27
1590,3855,101566,Peatt at Brock,,48.453314,-123.498361,,,0,,2,27
1591,3858,101569,Peatt at Goldstream,,48.449854,-123.500464,,,0,,2,27
1592,3912,101631,Goldstream at Jacklin,,48.450855,-123.506376,,,0,,2,10
1593,3952,101673,Goldstream at Spencer,,48.450369,-123.510886,,,0,,2,10
1594,3930,101649,Goldstream at Leigh,,48.449716,-123.518852,,,0,,2,10
1595,3847,101558,"Goldstream, 1170 Block",,48.44979,-123.524481,,,0,,2,10
1596,142737,102530,Goldstream at Lakeshore Pl,,48.454113,-123.531753,,,0,,2,10
1597,4086,101809,Goldstream Ave at Ed Nixon Trailhead,,48.455134,-123.534114,,,0,,2,10
1598,4065,101787,Goldstream at Lakeshore,,48.453295,-123.530538,,,0,,2,10
1599,4059,101781,Goldstream at Wenger,,48.452021,-123.528727,,,0,,2,10
1600,4008,101730,"Goldstream, 1170 Block",,48.449592,-123.52417,,,0,,2,10
1601,4025,101747,Goldstream at Hartsdale,,48.449183,-123.520956,,,0,,2,10
1602,3990,101712,Goldstream at Leigh,,48.449574,-123.517469,,,0,,2,25
1603,3964,101686,Carlow at Goldstream,,48.449243,-123.513315,,,0,,2,25
1604,3970,101692,Carlow at Linda,,48.447223,-123.514769,,,0,,2,25
1605,3963,101685,Dunford at Henry Eng Pl,,48.44575,-123.514347,,,0,,2,25
1606,3936,101656,Dunford at Jacklin,,48.4451,-123.511306,,,0,,2,30
1607,3959,101681,Dunford at Carlow,,48.445897,-123.514506,,,0,,2,29
1608,3965,101687,Carlow at Costin,,48.447577,-123.514221,,,0,,2,29
1609,4663,104081,Carlow at Goldstream,,48.449223,-123.513112,,,0,,2,29
1610,3947,101668,Goldstream at Spencer,,48.450245,-123.510811,,,0,,2,12
1611,3920,101639,Goldstream at Matson,,48.450888,-123.507543,,,0,,2,12
1612,3853,101564,Peatt at Goldstream,,48.450108,-123.50009,,,0,,2,26
1613,3849,101560,Peatt at Brock,,48.453253,-123.498214,,,0,,2,26
1614,3850,101561,Peatt at Arncote,,48.45451,-123.497515,,,0,,2,26
1615,3832,101543,Strandlund at Duncan,,48.456629,-123.493473,,,0,,2,12
1616,3807,101518,Selwyn at Wentwich,,48.457052,-123.489883,,,0,,2,12
1617,3783,101494,Selwyn at Mill Hill,,48.456031,-123.487096,,,0,,2,12
1618,3773,101484,Selwyn at Wynwood,,48.453117,-123.486519,,,0,,2,12
1619,3751,101462,Selwyn at Selwyn Oaks,,48.450406,-123.486023,,,0,,2,12
1620,3731,101442,Atkins at Leggett,,48.450011,-123.484354,,,0,,2,12
1621,3666,101377,Atkins at Crystalview,,48.449967,-123.478279,,,0,,2,12
1622,3638,101348,"Atkins, 360 block",,48.447555,-123.477454,,,0,,2,12
1623,3595,101304,Atkins at Country,,48.449925,-123.47025,,,0,,2,12
1624,3598,101307,Atkins at Myra,,48.452388,-123.468733,,,0,,2,12
1625,3612,101322,Atkins at Anya,,48.456442,-123.467201,,,0,,2,12
1626,3602,101311,Atkins at Six Mile Rd.,,48.458183,-123.464499,,,0,,2,12
1627,3580,101289,Six Mile Rd. at Damon,,48.45739,-123.462073,,,0,,2,12
1628,3957,101679,Goldstream at Carlow,,48.449885,-123.512438,,,0,,2,6
1629,3935,101655,Jenkins at Avrill,,48.440654,-123.512677,,,0,,2,16
1630,3962,101684,Jenkins at Hull,,48.441446,-123.516476,,,0,,2,16
1631,3991,101713,Jenkins at Haslam,,48.441883,-123.520623,,,0,,2,16
1632,4005,101727,Jenkins at Glen Lake,,48.441911,-123.52302,,,0,,2,16
1633,4021,101743,Glen Lake at Springhill,,48.442704,-123.526736,,,0,,2,16
1634,4034,101756,Glen Lake at Glenview,,48.441025,-123.529597,,,0,,2,16
1635,4033,101755,Glen Lake at Kathlynn,,48.439707,-123.529331,,,0,,2,16
1636,4020,101742,Glen Lake at Waterlily,,48.438483,-123.527788,,,0,,2,16
1637,4014,101736,Glen Lake at Colbourne,,48.436024,-123.525918,,,0,,2,16
1638,4009,101731,Glen Lake at Paddle,,48.434308,-123.525668,,,0,,2,16
1639,4027,101749,Sooke Rd. at Ronald,,48.432626,-123.529457,,,0,,2,52
1640,4051,101773,Sooke Rd. at Penwood,,48.431116,-123.533621,,,0,,2,52
1641,4050,101772,Marwood at Luxton,,48.429529,-123.534404,,,0,,2,16
1642,4031,101753,Marwood at Hazelwood,,48.428991,-123.531773,,,0,,2,16
1643,3860,101571,Latoria at Bezanton,,48.407199,-123.505221,,,0,,2,19
1644,3822,101533,Latoria at Pondside,,48.406609,-123.50248,,,0,,2,19
1645,145226,102544,Metchosin at Latoria,,48.407612,-123.486193,,,0,,2,10
1646,3744,101455,Metchosin at Farhill,,48.400093,-123.490696,,,0,,2,10
1647,3793,101504,Metchosin at Pelican,,48.398592,-123.495437,,,0,,2,10
1648,3795,101506,Duke Rd E at Haystock,,48.396824,-123.495745,,,0,,2,10
1649,3811,101522,Duke Rd E at Dutnall,,48.39306,-123.496098,,,0,,2,10
1650,3834,101545,Duke Rd E at Chapel Heights,,48.390498,-123.497549,,,0,,2,10
1651,3852,101563,"Duke Rd E, 3790 block",,48.388627,-123.498875,,,0,,2,10
1652,3877,101591,"Duke Rd E, 3830 block",,48.388343,-123.502644,,,0,,2,10
1653,3894,101610,Duke Rd E at Gilbert,,48.388356,-123.504101,,,0,,2,10
1654,3917,101636,Duke Rd W at Cliff,,48.391583,-123.508404,,,0,,2,10
1655,3945,101666,Metchosin at Duke Rd W,,48.393032,-123.510818,,,0,,2,10
1656,4012,101734,Metchosin at Lomax,,48.391824,-123.521231,,,0,,2,10
1657,4036,101758,Metchosin at Pears,,48.389479,-123.526072,,,0,,2,10
1658,4058,101780,Metchosin at Witty Beach,,48.384341,-123.526991,,,0,,2,10
1659,4072,101794,Metchosin at Wootton,,48.382176,-123.52908,,,0,,2,10
1660,2822,100508,Metchosin at Wootton,,48.381022,-123.530202,,,0,,2,10
1661,4082,101805,William Head at Happy Valley,,48.379265,-123.531736,,,0,,2,10
1662,4089,101812,William Head at Parry,,48.377022,-123.532794,,,0,,2,10
1663,4102,101826,"William Head, 4550 block",,48.375055,-123.533928,,,0,,2,10
1664,4130,101855,Taylor at William Head,,48.369213,-123.539522,,,0,,2,10
1665,4145,101871,William Head at Lombard,,48.36518,-123.543663,,,0,,2,10
1666,4154,101880,William Head at Boblaw,,48.358531,-123.545285,,,0,,2,17
1667,53601,100465,William Head at Sandgate,,48.353257,-123.547301,,,0,,2,17
1668,53565,100429,William Head at Pearson College,,48.351303,-123.546299,,,0,,2,17
1669,4647,102447,William Head Institution,,48.339518,-123.541834,,,0,,2,17
1670,53571,100435,William Head at Pearson College,,48.351327,-123.546248,,,0,,2,17
1671,4159,101887,William Head at Sandgate,,48.353553,-123.547332,,,0,,2,17
1672,4153,101879,William Head at Boblaw,,48.358227,-123.545209,,,0,,2,17
1673,4148,101874,Lombard at Tavane,,48.366597,-123.548567,,,0,,2,10
1674,4149,101875,Rocky Point at Arden,,48.368944,-123.550363,,,0,,2,13
1675,4142,101868,Rocky Point at Taylor,,48.371779,-123.547291,,,0,,2,13
1676,4136,101862,Rocky Point at Walpole,,48.374062,-123.544414,,,0,,2,13
1677,4122,101847,"Rocky Point, 4540 block",,48.377461,-123.541506,,,0,,2,13
1678,4093,101816,Happy Valley at Rocky Point,,48.382458,-123.538379,,,0,,2,13
1679,4107,101832,"Happy Valley, 4360 block",,48.385138,-123.542259,,,0,,2,13
1680,4111,101836,"Happy Valley, 4350 block",,48.386459,-123.544237,,,0,,2,13
1681,4116,101841,Happy Valley at Bennett,,48.388784,-123.547584,,,0,,2,13
1682,4126,101851,Happy Valley at Lindholm,,48.393208,-123.551197,,,0,,2,13
1683,4123,101848,Happy Valley at Brookview,,48.397345,-123.551141,,,0,,2,13
1684,4117,101842,Happy Valley at Glen Forest,,48.399337,-123.550826,,,0,,2,13
1685,4112,101837,Happy Valley at Flesh,,48.402091,-123.550221,,,0,,2,13
1686,4104,101829,Happy Valley at Neild,,48.404825,-123.547498,,,0,,2,13
1687,4077,101800,Happy Valley at Centremont,,48.407555,-123.541539,,,0,,2,13
1688,4074,101797,Happy Valley at Wild Ridge,,48.409835,-123.539667,,,0,,2,13
1689,4070,101792,Happy Valley at Lomalinda,,48.410984,-123.538028,,,0,,2,13
1690,4054,101776,Happy Valley at Vitality,,48.412489,-123.534645,,,0,,2,13
1691,4043,101765,Happy Valley at Dicker,,48.41351,-123.53301,,,0,,2,13
1692,4035,101757,Marwood at Hazelwood,,48.429166,-123.532012,,,0,,2,16
1693,4078,101801,Sooke Rd. at Chidlow,,48.429443,-123.538088,,,0,,2,54
1694,4052,101774,Sooke Rd. at Penwood,,48.43078,-123.534192,,,0,,2,54
1695,4022,101744,Sooke Rd. at Ronald,,48.432385,-123.529689,,,0,,2,54
1696,4007,101729,Glen Lake at Page,,48.434203,-123.525545,,,0,,2,16
1697,4011,101733,Glen Lake at Colbourne,,48.436093,-123.525771,,,0,,2,16
1698,4017,101739,Glen Lake at Waterlily,,48.438548,-123.527605,,,0,,2,16
1699,4032,101754,Glen Lake at Kathlynn,,48.439727,-123.529082,,,0,,2,16
1700,4030,101752,Glen Lake at Glenview,,48.441379,-123.528761,,,0,,2,16
1701,4023,101745,Glen Lake at Springhill,,48.442612,-123.526287,,,0,,2,16
1702,4004,101726,Jenkins at Glen Lake,,48.44182,-123.522758,,,0,,2,16
1703,3988,101710,Jenkins at Haslam,,48.441664,-123.519892,,,0,,2,16
1704,3967,101689,Jenkins at Hull,,48.441344,-123.51685,,,0,,2,16
1705,3939,101659,Jenkins at Avrill,,48.44061,-123.513063,,,0,,2,16
1706,4047,101769,Happy Valley at Dicker,,48.413707,-123.53319,,,0,,2,10
1707,4053,101775,Happy Valley at Vitality,,48.412671,-123.534565,,,0,,2,10
1708,4071,101793,Happy Valley at Lomalinda,,48.411225,-123.537874,,,0,,2,10
1709,4075,101798,Happy Valley at Wild Ridge,,48.40965,-123.539993,,,0,,2,10
1710,4079,101802,Happy Valley at Winter,,48.407949,-123.541458,,,0,,2,10
1711,4105,101830,Happy Valley at Neild,,48.404776,-123.547851,,,0,,2,10
1712,4114,101839,Happy Valley at Flesh,,48.401975,-123.550484,,,0,,2,10
1713,4120,101845,Happy Valley at Glen Forest,,48.399302,-123.551022,,,0,,2,10
1714,4124,101849,Happy Valley at Brookview,,48.397353,-123.551329,,,0,,2,10
1715,4128,101853,Happy Valley at Lindholm,,48.392906,-123.550966,,,0,,2,10
1716,4118,101843,Happy Valley at Bennett,,48.388646,-123.547674,,,0,,2,10
1717,4110,101835,"Happy Valley, 4340 block",,48.386408,-123.544478,,,0,,2,10
1718,4106,101831,"Happy Valley, 4370 block",,48.384447,-123.541635,,,0,,2,10
1719,4095,101819,Happy Valley at Rocky Point,,48.382477,-123.538653,,,0,,2,10
1720,4113,101838,"Rocky Point, 4540 block",,48.377306,-123.541865,,,0,,2,10
1721,4134,101859,Rocky Point at Walpole,,48.374361,-123.544343,,,0,,2,10
1722,4144,101870,Rocky Point at Tiswilde,,48.371668,-123.547752,,,0,,2,10
1723,4150,101876,Rocky Point at Arden,,48.369014,-123.550517,,,0,,2,10
1724,4151,101877,Lombard at Tavane,,48.366579,-123.548922,,,0,,2,7
1725,4143,101869,William Head at Lombard,,48.36506,-123.543555,,,0,,2,7
1726,4133,101858,William Head at Taylor,,48.36895,-123.539564,,,0,,2,7
1727,4094,101818,"William Head, 4550 block",,48.374924,-123.533806,,,0,,2,7
1728,4088,101811,William Head at Parry,,48.376966,-123.53259,,,0,,2,7
1729,4076,101799,Metchosin at Happy Valley,,48.380288,-123.530672,,,0,,2,7
1730,4069,101791,Metchosin at Wootton,,48.382051,-123.528961,,,0,,2,7
1731,4060,101782,Metchosin at Witty Beach,,48.384055,-123.526956,,,0,,2,7
1732,4029,101751,Metchosin at Pears,,48.389744,-123.525569,,,0,,2,7
1733,4006,101728,Metchosin at Lomax,,48.391728,-123.520751,,,0,,2,7
1734,3943,101664,Metchosin at Duke Rd W,,48.392963,-123.510599,,,0,,2,7
1735,3925,101644,Duke Rd W at Cliff,,48.391512,-123.508576,,,0,,2,7
1736,3900,101619,Duke Rd E at Gilbert,,48.38822,-123.504166,,,0,,2,7
1737,3874,101588,"Duke Rd E, 3810 block",,48.387845,-123.501475,,,0,,2,7
1738,3840,101551,"Duke Rd E, 3770 block",,48.389159,-123.498309,,,0,,2,7
1739,3826,101537,Duke Rd E at Chapel Heights,,48.390966,-123.497013,,,0,,2,7
1740,3806,101517,Duke Rd E at Dutnall,,48.393615,-123.4957,,,0,,2,7
1741,3791,101502,Duke Rd E at Haystock,,48.397123,-123.495469,,,0,,2,7
1742,3788,101499,Metchosin at Pelican,,48.39854,-123.494531,,,0,,2,7
1743,3740,101451,Metchosin at Farhill,,48.399987,-123.490533,,,0,,2,7
1744,3859,101570,"Latoria, 570 block",,48.40757,-123.507013,,,0,,2,17
1745,4664,104082,Leigh at Goldstream,,48.450018,-123.518237,,,0,,2,17
1746,4665,104083,Leigh at Hwy 1 s/b ramp,,48.454139,-123.519126,,,0,,2,17
1747,3890,101606,Bellamy at Larabie,,48.469353,-123.491523,,,0,,2,31
1748,3888,101604,Gourman at Bellamy,,48.470564,-123.490104,,,0,,2,63
1749,3910,101629,Gourman at Brandy,,48.470562,-123.492904,,,0,,2,32
1750,3903,101622,Goldie at Bellamy,,48.468443,-123.493394,,,0,,2,32
1751,3348,101048,"McCallum Rd, 799 Block - Costco driveway",,48.45925,-123.502676,,,0,,2,15
1752,4666,104084,Leigh at Hwy 1 s/b ramp,,48.452859,-123.518903,,,0,,2,15
1753,3954,101675,Jacklin at Cecil Blogg,,48.43061,-123.517431,,,0,,2,10
1754,3937,101657,"Walfred, 910 block",,48.428826,-123.515528,,,0,,2,10
1755,3915,101634,"Walfred, 900 block",,48.427515,-123.51425,,,0,,2,10
1756,3885,101601,Cuaulta at Zapata,,48.426496,-123.511482,,,0,,2,10
1757,3870,101583,"Cuaulta, 790 block",,48.425537,-123.509763,,,0,,2,10
1758,3875,101589,"Bexhill, 730 block",,48.423515,-123.51047,,,0,,2,10
1759,3865,101576,Fulton at Karger,,48.421281,-123.508723,,,0,,2,10
1760,3880,101595,Fulton at Sunheights,,48.419841,-123.511215,,,0,,2,10
1761,3895,101611,Sunheights at Claudette,,48.420733,-123.512465,,,0,,2,10
1762,3924,101643,Sunheights at Batting,,48.418936,-123.514863,,,0,,2,10
1763,3933,101653,Sunheights at Columbus,,48.417271,-123.515676,,,0,,2,10
1764,3923,101642,Desmond at Wendey,,48.41398,-123.514722,,,0,,2,10
1765,3757,101468,Wishart at Acland,,48.420406,-123.495369,,,0,,2,10
1766,3733,101444,Wishart at Owens,,48.421972,-123.492973,,,0,,2,10
1767,3722,101433,Wishart at Allandale,,48.424655,-123.491453,,,0,,2,10
1768,3891,101607,Kelly at Reunion,,48.438831,-123.509331,,,0,,2,10
1769,4669,104087,Wishart at Allendale,,48.424685,-123.491654,,,0,,2,11
1770,4670,104088,Wishart at Tipton,,48.422055,-123.493176,,,0,,2,11
1771,4675,104093,Latoria at Bezanton,,48.407185,-123.504271,,,0,,2,11
1772,4676,104094,Desmond at Latoria,,48.411549,-123.516779,,,0,,2,11
1773,4677,104095,Desmond at Wendy,,48.413368,-123.514989,,,0,,2,11
1774,3211,100908,Sunheights at Sun Estates,,48.415287,-123.513838,,,0,,2,11
1775,4678,104096,Sunheights at Columbus,,48.417364,-123.515525,,,0,,2,11
1776,4679,104097,Sunheights at Batting,,48.418922,-123.514498,,,0,,2,11
1777,4680,104098,Sunheights at Blue Sky,,48.420025,-123.512114,,,0,,2,11
1778,4681,104099,Fulton at Karger,,48.42124,-123.50852,,,0,,2,11
1779,4682,104100,Bexhill at Bexhill Place,,48.4237,-123.510738,,,0,,2,11
1780,4691,104109,Cuaulta at Zapata,,48.425576,-123.50956,,,0,,2,11
1781,4683,104101,Cuaulta at Zapata,,48.426823,-123.511207,,,0,,2,11
1782,4684,104102,"Walfred, 900 block",,48.427564,-123.514029,,,0,,2,11
1783,4685,104103,Jacklin at Walfred,,48.429928,-123.517672,,,0,,2,11
1784,4686,104104,"Jacklin, 3227 block",,48.432939,-123.515738,,,0,,2,11
1785,4001,101723,Sooke Rd. at Happy Valley,,48.432939,-123.523911,,,0,,2,36
1786,4083,101806,Sooke Rd. at Glenshire,,48.429204,-123.542741,,,0,,2,36
1787,11139,101827,Sooke Rd at Westshore Pkwy,,48.425215,-123.549555,,,0,,2,38
1788,4098,101822,Sooke Rd. at Awsworth,,48.426036,-123.563724,,,0,,2,38
1789,4155,101881,Sooke Rd at Humpback,,48.426224,-123.569148,,,0,,2,38
1790,3790,101501,"Sooke Rd., 3770 block",,48.41133,-123.585888,,,0,,2,38
1791,4173,101902,"Sooke Rd, 4020 block",,48.407489,-123.584208,,,0,,2,38
1792,4176,101905,"Sooke Rd, 4140 block",,48.399109,-123.590311,,,0,,2,38
1793,4203,101938,Sooke Rd at Kangaroo,,48.393487,-123.596912,,,0,,2,38
1794,4222,101957,Sooke Rd at Impala,,48.394322,-123.605993,,,0,,2,38
1795,4232,101967,"Sooke Rd, 4880 block",,48.396867,-123.609468,,,0,,2,38
1796,4247,101987,"Sooke Rd, 4960 block",,48.39808,-123.614855,,,0,,2,38
1797,145228,102549,Sooke at Gillespie,,48.396155,-123.62596,,,0,,2,45
1798,145232,102568,Sooke at Glinz Lake,,48.394408,-123.635586,,,0,,2,42
1799,2810,100496,"Sooke Rd, 5220 block",,48.390956,-123.64113,,,0,,2,42
1800,4331,102081,"Sooke Rd, 5260 block",,48.388611,-123.643742,,,0,,2,42
1801,4335,102085,"Sooke Rd, 5330 block",,48.388321,-123.648457,,,0,,2,42
1802,4343,102093,"Sooke Rd, 5380 block",,48.390811,-123.65116,,,0,,2,42
1803,4347,102097,"Sooke Rd, 5460 block",,48.394836,-123.655139,,,0,,2,42
1804,4352,102102,Sooke Rd at Ludlow,,48.394195,-123.657973,,,0,,2,42
1805,4355,102105,Sooke Rd at Laidlaw,,48.393428,-123.660487,,,0,,2,42
1806,4379,102131,Sooke at Harbourview,,48.391191,-123.667853,,,0,,2,42
1807,4395,102147,Sooke Rd at Saseenos,,48.391078,-123.670603,,,0,,2,42
1808,4402,102154,Sooke Rd at Woodlands,,48.390747,-123.676787,,,0,,2,42
1809,4416,102168,"Sooke Rd, 5940 block",,48.38906,-123.682764,,,0,,2,42
1810,4422,102183,Sooke Rd at Kaltasin,,48.387366,-123.688727,,,0,,2,39
1811,4448,102214,Sooke Rd at Lazzar (Sooke Park & Ride),,48.387895,-123.698741,,,0,,2,42
1812,4463,102236,Sooke Rd at Phillips,,48.383858,-123.705958,,,0,,2,42
1813,4471,102247,Sooke Rd at Terrott,,48.381865,-123.710206,,,0,,2,42
1814,4478,102255,Sooke Rd at Charters,,48.380766,-123.712957,,,0,,2,42
1815,4493,102270,Sooke Rd at Church,,48.379224,-123.717774,,,0,,2,42
1816,4508,102285,Sooke Rd at Townsend - Sooke Town Ctr.,,48.378433,-123.722445,,,0,,2,42
1817,4515,102292,Otter Point at Ayre,,48.378517,-123.724532,,,0,,2,34
1818,4517,102294,Otter Point at Grant,,48.379653,-123.725201,,,0,,2,34
1819,4538,102315,Otter Point at Beaton,,48.383019,-123.732821,,,0,,2,34
1820,4540,102317,Quartz at Otter Point,,48.384253,-123.733726,,,0,,2,34
1821,4548,102325,Pyrite at Rhodonite,,48.383232,-123.735893,,,0,,2,34
1822,4552,102329,Pyrite at Talc,,48.381076,-123.735583,,,0,,2,34
1823,4549,102326,Pyrite at Banner,,48.37841,-123.734624,,,0,,2,34
1824,4554,102331,Grant at French,,48.377024,-123.735221,,,0,,2,34
1825,4562,102339,Grant at Guardian,,48.376431,-123.737227,,,0,,2,34
1826,4573,102350,Grant at Maple,,48.375386,-123.740957,,,0,,2,34
1827,4581,102358,Grant at Winfield,,48.374348,-123.744553,,,0,,2,34
1828,4587,102364,"Grant, 7120 block",,48.373538,-123.747208,,,0,,2,34
1829,4595,102372,Grant at West Coast,,48.372668,-123.750265,,,0,,2,34
1830,4594,102371,West Coast at Ella,,48.371949,-123.749668,,,0,,2,38
1831,4590,102367,West Coast at Croce,,48.370104,-123.747292,,,0,,2,38
1832,4585,102362,"West Coast, 7120 block",,48.367572,-123.743228,,,0,,2,38
1833,4567,102344,West Coast at Whiffin Spit,,48.366071,-123.734929,,,0,,2,38
1834,4555,102332,"West Coast, 6950 block",,48.367481,-123.731036,,,0,,2,38
1835,4531,102308,West Coast at Maple,,48.370573,-123.72819,,,0,,2,38
1836,4522,102299,West Coast at Atherly,,48.375349,-123.724963,,,0,,2,38
1837,2361,100016,Sooke at Townsend - Sooke Town Ctr.,,48.378338,-123.722015,,,0,,2,90
1838,109405,102213,Sooke Rd at Shields,,48.375752,-123.725073,,,0,,2,16
1839,4534,102311,West Coast at Maple,,48.370637,-123.72837,,,0,,2,12
1840,4556,102333,"West Coast, 6960 block",,48.367028,-123.733029,,,0,,2,12
1841,4565,102342,West Coast at Whiffin Spit,,48.365941,-123.736748,,,0,,2,12
1842,4583,102360,"West Coast, 7120 block",,48.368212,-123.743942,,,0,,2,12
1843,4588,102365,West Coast at Croce,,48.370246,-123.747225,,,0,,2,12
1844,4592,102369,Grant at West Coast,,48.372628,-123.749901,,,0,,2,12
1845,4584,102361,"Grant, 7120 block",,48.373336,-123.747431,,,0,,2,12
1846,4579,102356,Grant at Winfield,,48.374442,-123.743721,,,0,,2,12
1847,4568,102345,Grant at Maple,,48.375493,-123.740076,,,0,,2,12
1848,4560,102337,Grant at French,,48.376475,-123.736578,,,0,,2,12
1849,4546,102323,Pyrite at Banner,,48.37849,-123.734363,,,0,,2,12
1850,4550,102327,Pyrite at Beaton,,48.381545,-123.735663,,,0,,2,12
1851,4547,102324,Pyrite at Rhodonite,,48.38344,-123.735536,,,0,,2,12
1852,4542,102319,Quartz at Gatewood,,48.383982,-123.734239,,,0,,2,12
1853,4539,102316,Otter Point at Rhodonite,,48.383229,-123.733252,,,0,,2,12
1854,4516,102293,Otter Point at Eustace,,48.378147,-123.724536,,,0,,2,12
1855,4495,102272,Sooke Rd at Church,,48.379199,-123.717495,,,0,,2,44
1856,4481,102258,Sooke Rd at Dover,,48.380423,-123.713775,,,0,,2,44
1857,4470,102246,Sooke Rd at Drennan,,48.381846,-123.709941,,,0,,2,44
1858,4462,102235,Sooke Rd at Belvista,,48.383903,-123.705545,,,0,,2,42
1859,4447,102212,Sooke Rd at Lazzar (Sooke Park & Ride),,48.387729,-123.697598,,,0,,2,44
1860,4423,102184,Sooke Rd at Kaltasin,,48.387237,-123.688492,,,0,,2,46
1861,4418,102170,"Sooke Rd, 5920 block",,48.389998,-123.678724,,,0,,2,44
1862,4398,102150,Sooke Rd at Saseenos,,48.39085,-123.671958,,,0,,2,44
1863,4375,102127,Sooke Rd at Harbourview,,48.391041,-123.666656,,,0,,2,44
1864,4359,102109,Sooke Rd at Laidlaw,,48.393001,-123.66088,,,0,,2,44
1865,4356,102106,Sooke Rd at Ludlow,,48.394043,-123.658014,,,0,,2,44
1866,4353,102103,"Sooke Rd, 5460 block",,48.394675,-123.655607,,,0,,2,40
1867,4342,102092,"Sooke Rd, 5370 block",,48.390562,-123.651318,,,0,,2,44
1868,4333,102083,"Sooke Rd, 5320 block",,48.387645,-123.647808,,,0,,2,44
1869,2363,100018,"Sooke Rd, 5250 block",,48.389034,-123.642852,,,0,,2,44
1870,4319,102069,Sooke Rd at Glinz Lake Rd,,48.393327,-123.636413,,,0,,2,44
1871,145229,102551,Sooke at Gillespie,,48.396058,-123.625658,,,0,,2,47
1872,4241,101980,"Sooke Rd, 4960 block",,48.397942,-123.614379,,,0,,2,40
1873,4230,101965,"Sooke Rd, 4880 block",,48.39651,-123.609307,,,0,,2,40
1874,4221,101956,Sooke Rd at Impala,,48.393841,-123.605631,,,0,,2,40
1875,4202,101937,Sooke Rd at Kangaroo,,48.392942,-123.597979,,,0,,2,40
1876,4174,101903,"Sooke Rd, 4130 block",,48.399259,-123.589446,,,0,,2,40
1877,4185,101916,"Sooke Rd, 4000 block",,48.409573,-123.585279,,,0,,2,40
1878,4092,101815,Sooke Rd. at Awsworth,,48.42582,-123.563117,,,0,,2,40
1879,11172,101860,Sooke Rd at Westshore Pkwy,,48.425108,-123.548787,,,0,,2,38
1880,3929,101648,Sooke Rd. at Jacklin,,48.433706,-123.514466,,,0,,2,10
1881,3872,101585,Sooke Rd. at Cecil Blogg,,48.431807,-123.509345,,,0,,2,10
1882,3841,101552,Sooke Rd. at Fulton,,48.429701,-123.505448,,,0,,2,10
1883,78680,102068,Sooke Rd. at Carran,,48.432258,-123.497047,,,0,,2,10
1884,3794,101505,Sooke Rd. at Lynnlark,,48.43168,-123.498902,,,0,,2,8
1885,3837,101548,Sooke Rd. at Fulton,,48.42992,-123.505577,,,0,,2,8
1886,3867,101580,Sooke Rd. at Cecil Blogg,,48.432308,-123.510001,,,0,,2,8
1887,4494,102271,Church at Sooke Rd,,48.379479,-123.718461,,,0,,2,4
1888,4498,102275,Church at Country,,48.381928,-123.719958,,,0,,2,4
1889,4501,102278,Church Rd at Church St,,48.384589,-123.722334,,,0,,2,4
1890,4505,102282,Church at Arranwood,,48.38672,-123.723676,,,0,,2,4
1891,4520,102297,Helgesen at Cedar Ridge,,48.389035,-123.728228,,,0,,2,4
1892,4536,102313,Helgesen at Otter Point,,48.387589,-123.733288,,,0,,2,4
1893,4543,102320,Otter Point at Burr,,48.391261,-123.736775,,,0,,2,4
1894,4578,102355,Otter Point at Pascoe,,48.396712,-123.746364,,,0,,2,4
1895,4593,102370,Otter Point at Sarah,,48.396846,-123.754326,,,0,,2,4
1896,4613,102392,Otter Point at Young Lake,,48.396095,-123.767945,,,0,,2,4
1897,116846,100067,Otter Point Road at Butler,,48.394837,-123.772792,,,0,,2,4
1898,4623,102411,Otter Point at Ramsden,,48.394068,-123.777934,,,0,,2,4
1899,4639,102435,Kemp Lake at Milligan,,48.381733,-123.790755,,,0,,2,4
1900,4640,102438,"Kemp Lake, 2450 block",,48.376246,-123.791918,,,0,,2,4
1901,4641,102439,"Kemp Lake, 2320 block",,48.371474,-123.794637,,,0,,2,4
1902,4643,102441,"Kemp Lake, 2230 block",,48.367731,-123.795435,,,0,,2,4
1903,4642,102440,West Coast at Kemp Lake,,48.366073,-123.793315,,,0,,2,4
1904,4631,102422,"West Coast, 7750 block",,48.367138,-123.783989,,,0,,2,4
1905,4575,102352,Whiffin Spit at Wright,,48.363346,-123.737367,,,0,,2,4
1906,4569,102346,Whiffin Spit at Deerlepe,,48.358319,-123.734304,,,0,,2,4
1907,4553,102330,Dufour at Whiffin Spit,,48.357485,-123.728391,,,0,,2,4
1908,4551,102328,Dufour at Deerlepe,,48.359799,-123.729746,,,0,,2,4
1909,4574,102351,Whiffin Spit at Wright,,48.363329,-123.737194,,,0,,2,4
1910,4444,102209,"Llanilar, 6230 block",,48.365533,-123.690327,,,0,,2,14
1911,4445,102210,Llanilar at Hensbro,,48.363188,-123.6896,,,0,,2,10
1912,4424,102186,Andover at Copper Mine,,48.362993,-123.678562,,,0,,2,10
1913,4430,102195,Copper Mine at Andover,,48.363761,-123.678884,,,0,,2,10
1914,4414,102166,E Sooke Rd at Raglan,,48.36413,-123.673816,,,0,,2,10
1915,4394,102146,"E Sooke Rd, 5890 block",,48.359642,-123.660724,,,0,,2,10
1916,4381,102133,E Sooke at Parkheights,,48.358261,-123.655877,,,0,,2,10
1917,4365,102116,E Sooke Rd at Boardman,,48.358008,-123.646544,,,0,,2,10
1918,4357,102107,E Sooke Rd at Gillespie,,48.354362,-123.642634,,,0,,2,10
1919,4338,102088,Gillespie at Mt Matheson,,48.358696,-123.633791,,,0,,2,7
1920,4326,102076,Gillespie at Roche Cove Bridge,,48.37239,-123.632694,,,0,,2,7
1921,4312,102061,"Gillespie, 1590 block",,48.384037,-123.629757,,,0,,2,7
1922,4307,102056,"Gillespie, 1890 block",,48.391647,-123.631536,,,0,,2,7
1923,145230,102552,Gillepsie at Sooke,,48.395857,-123.626957,,,0,,2,7
1924,4426,102189,Kaltasin at Sooke Rd,,48.386542,-123.687913,,,0,,2,5
1925,4431,102196,Kaltasin at Seabroom,,48.383708,-123.689233,,,0,,2,5
1926,4421,102182,Kaltasin at Seabroom,,48.382248,-123.690003,,,0,,2,5
1927,4438,102203,Glenidle at Idlemore,,48.381587,-123.692128,,,0,,2,5
1928,4432,102197,Idlemore at Glenidle,,48.384031,-123.691688,,,0,,2,5
1929,4464,102238,SEAPARC Recreation Ctr,,48.386275,-123.708805,,,0,,2,10
1930,4467,102241,Sunriver at De Mamiel,,48.393079,-123.711378,,,0,,2,5
1931,4519,102296,Sunriver at De Mamiel,,48.394342,-123.714523,,,0,,2,5
1932,4541,102318,Sunriver at Driftwood,,48.395607,-123.719115,,,0,,2,5
1933,4345,102095,Sunriver at Riverstone,,48.397055,-123.721192,,,0,,2,5
1934,4315,102064,"Driftwood, 2430 block",,48.396152,-123.722085,,,0,,2,5
1935,4452,102219,Sunriver at Driftwood,,48.395424,-123.718631,,,0,,2,5
1936,4474,102250,Sunriver at Poplar,,48.393398,-123.713656,,,0,,2,5
1937,4468,102242,Sunriver at De Mamiel,,48.392952,-123.711377,,,0,,2,5
1938,4190,101923,Sooke Rd at Gillespie - 17 Mile,,48.394086,-123.627406,,,0,,2,7
1939,4310,102059,"Gillespie, 1890 block",,48.391567,-123.631699,,,0,,2,7
1940,4314,102063,"Gillespie, 1610 block",,48.384469,-123.630213,,,0,,2,7
1941,121449,102459,"Gillespie, 1424 Block",,48.376974,-123.629601,,,0,,2,7
1942,4328,102078,Gillespie at Roche Cove Bridge,,48.370533,-123.633218,,,0,,2,7
1943,4340,102090,Gillespie at Mt Matheson,,48.358032,-123.635803,,,0,,2,7
1944,4354,102104,E Sooke Rd at Gillespie,,48.354454,-123.642476,,,0,,2,10
1945,4366,102117,E Sooke Rd at Boardman,,48.358625,-123.648601,,,0,,2,10
1946,4382,102134,E Sooke Rd at Parkheights,,48.358386,-123.655966,,,0,,2,10
1947,4393,102145,E Sooke Rd 5900 block,,48.359909,-123.660873,,,0,,2,10
1948,4415,102167,E Sooke Rd at Raglan,,48.364451,-123.67433,,,0,,2,10
1949,2438,100108,East Sooke at Llanilar,,48.366422,-123.684065,,,0,,2,10
1950,109589,102406,East Sooke at Seedtree,,48.350163,-123.637478,,,0,,2,3
1951,109591,102408,East Sooke at Becher Bay,,48.339955,-123.631559,,,0,,2,3
1952,109418,102230,East Sooke at Whale View,,48.33716,-123.620475,,,0,,2,3
1953,109420,102232,East Sooke at Spirit Bay,,48.338019,-123.606365,,,0,,2,3
1954,109437,102252,East Sooke at Sutiacum,,48.342377,-123.596145,,,0,,2,3
1955,109580,102397,Rocky Point at Pedder Bay,,48.351596,-123.582091,,,0,,2,3
1956,109576,102393,Rocky Point at Malloch,,48.356969,-123.579089,,,0,,2,3
1957,109564,102381,Rocky Point at 5159 Blk,,48.362448,-123.567835,,,0,,2,3
1958,109611,102430,Rocky Point at Windover,,48.364837,-123.555562,,,0,,2,3
1959,109613,102432,Rocky Point at Windover,,48.365081,-123.555532,,,0,,2,3
1960,109573,102390,Rocky Point Rd at 5157 Blk,,48.362755,-123.567477,,,0,,2,3
1961,109577,102394,Rocky Point at Galloping Goose Trail,,48.355518,-123.580415,,,0,,2,3
1962,109581,102398,Rocky Point at Pedder Bay,,48.351754,-123.582343,,,0,,2,3
1963,109601,102418,East Sooke at Sutiacum,,48.342782,-123.596168,,,0,,2,3
1964,109597,102414,East Sooke at Spirit Bay,,48.338171,-123.606234,,,0,,2,3
1965,109593,102410,East Sooke at Whale View,,48.337324,-123.620653,,,0,,2,3
1966,109590,102407,East Sooke at Becher Bay,,48.340172,-123.631431,,,0,,2,3
1967,109586,102403,East Sooke at Seedtree,,48.350005,-123.637175,,,0,,2,3
1968,3472,101177,Langford Pkwy at Veterans Memorial Pkwy,,48.442233,-123.50389,,,0,,2,2
1969,3423,101127,Langford Pkwy at Attree,,48.443176,-123.507946,,,0,,2,2
1970,52647,101981,Langford Pkwy at Lakepoint Way,,48.445205,-123.534013,,,0,,2,2
1971,3478,101184,Westshore Pkwy at Bombardier,,48.443698,-123.536351,,,0,,2,2
1972,3624,101334,Westshore Pkwy at Commander Crt,,48.441561,-123.536189,,,0,,2,2
1973,3479,101185,Westshore Pkwy at Commander Crt,,48.442094,-123.535551,,,0,,2,2
1974,3473,101178,Westshore Pkwy at Bombardier,,48.444108,-123.536688,,,0,,2,2
1975,4646,102445,Langford Pkwy at Phipps,,48.44201,-123.503961,,,0,,2,2
1976,3805,101516,Veterans Memorial Pkwy at Goldstream,,48.446092,-123.496041,,,0,,2,2
1977,3848,101559,Veterans Memorial Pkwy at Peatt,,48.455532,-123.496436,,,0,,2,2
1978,4620,102404,Swartz Bay Ferry Terminal,,48.688255,-123.41188,,,0,,2,89
1979,4607,102385,Hwy 17 s/b ramp at Lands End Rd,,48.683695,-123.413432,,,0,,2,69
1980,4469,102243,Fifth at Beacon - Sidney Town Ctr,,48.648599,-123.400417,,,0,,2,115
1981,4295,102044,McTavish Exchange,,48.630051,-123.412454,,,0,,2,25
1982,121451,102469,Hwy 17 at Mt Newton X,,48.593957,-123.398507,,,0,,2,25
1983,4103,101828,Hwy 17 at Sayward,,48.538221,-123.389558,,,0,,2,96
1984,2354,100009,Hwy 17 at Haliburton,,48.513956,-123.38447,,,0,,2,25
1985,3696,101407,Royal Oak Exch / Broadmead Vlg,,48.498697,-123.385973,,,0,,2,25
1986,3175,100872,Hwy 17 at McKenzie,,48.467445,-123.382144,,,0,,2,94
1987,2371,100029,Legislature Terminal,,48.418974,-123.368956,,,0,,2,58
1988,3178,100875,Hwy 17 at McKenzie,,48.467873,-123.37893,,,0,,2,94
1989,3690,101401,Royal Oak Exch / Broadmead Vlg,,48.498632,-123.384255,,,0,,2,58
1990,3898,101616,Hwy 17 at Haliburton,,48.515029,-123.384291,,,0,,2,96
1991,121452,102474,Hwy 17 at Mt Newton X,,48.593911,-123.398102,,,0,,2,24
1992,4299,102048,McTavish Exch - airport connections,,48.629052,-123.411623,,,0,,2,24
1993,4473,102249,Fifth at Beacon - Sidney Town Ctr,,48.649312,-123.40023,,,0,,2,92
1994,4609,102387,Lands End at Hwy 17 s/b ramp,,48.684105,-123.412477,,,0,,2,65
1995,4597,102374,Hwy 17 s/b ramp at Wain Rd,,48.676786,-123.427501,,,0,,2,46
1996,4589,102366,McDonald Park Rd at McMicken,,48.674096,-123.42421,,,0,,2,46
1997,4580,102357,McDonald Park Rd at Bayfield,,48.671219,-123.421362,,,0,,2,46
1998,4577,102354,"McDonald Park Rd, 10580 block",,48.669292,-123.417772,,,0,,2,46
1999,4561,102338,McDonald Park Rd at Resthaven,,48.666489,-123.41697,,,0,,2,46
2000,4557,102334,Resthaven at Shoal Harbour Pier,,48.666103,-123.412205,,,0,,2,46
2001,4545,102322,Bowerbank at Colinwood,,48.664918,-123.410248,,,0,,2,46
2002,4535,102312,Ardwell at Devlin,,48.662526,-123.409467,,,0,,2,38
2003,4532,102309,Ardwell at Simister,,48.662528,-123.407347,,,0,,2,38
2004,4530,102307,Ardwell at Resthaven,,48.662531,-123.404552,,,0,,2,38
2005,4514,102291,Resthaven at Amelia,,48.658479,-123.403045,,,0,,2,38
2006,4503,102280,Resthaven at Malaview,,48.656734,-123.403055,,,0,,2,59
2007,4492,102269,Resthaven at Henry,,48.653832,-123.402514,,,0,,2,59
2008,88241,102185,James White Blvd at Resthaven,,48.65015,-123.401864,,,0,,2,38
2009,4475,102251,Beacon at Stirling,,48.649034,-123.408677,,,0,,2,49
2010,4460,102233,Ocean at Epco,,48.644561,-123.410578,,,0,,2,33
2011,4599,102376,Ocean at Canora,,48.644506,-123.416611,,,0,,2,33
2012,4253,101993,Canora at Dehavilland,,48.64275,-123.416695,,,0,,2,33
2013,4451,102218,Canora at Northbrook,,48.639996,-123.417673,,,0,,2,33
2014,4443,102208,Canora at Summergate,,48.636833,-123.41775,,,0,,2,33
2015,4439,102204,Canora at Summergate,,48.636279,-123.417316,,,0,,2,33
2016,4453,102220,Canora at Norseman,,48.640476,-123.41727,,,0,,2,33
2017,4256,101997,Canora at de Havilland,,48.642802,-123.416669,,,0,,2,33
2018,4602,102379,Ocean at Canora,,48.644374,-123.416435,,,0,,2,33
2019,4459,102231,Ocean at Epco,,48.64443,-123.410575,,,0,,2,33
2020,4472,102248,Beacon at Hwy 17,,48.648822,-123.408746,,,0,,2,48
2021,4482,102259,Fifth at Henry,,48.652783,-123.400187,,,0,,2,71
2022,4497,102274,Resthaven at Mills,,48.655171,-123.402832,,,0,,2,37
2023,4510,102287,Resthaven at Amherst,,48.657554,-123.402859,,,0,,2,37
2024,4518,102295,Resthaven at Amelia,,48.659024,-123.402875,,,0,,2,37
2025,4526,102303,Resthaven at Ardwell,,48.662235,-123.403815,,,0,,2,37
2026,4533,102310,Ardwell at Simister,,48.662655,-123.406614,,,0,,2,37
2027,4537,102314,Bowerbank at Ardwell,,48.662911,-123.410101,,,0,,2,45
2028,4544,102321,Bowerbank at Colinwood,,48.664963,-123.410042,,,0,,2,45
2029,4558,102335,"Resthaven, 10460 block",,48.666215,-123.412946,,,0,,2,45
2030,4559,102336,Resthaven at McDonald Park Rd,,48.666227,-123.416515,,,0,,2,45
2031,4576,102353,McDonald Park Rd at Blue Heron,,48.669557,-123.417638,,,0,,2,45
2032,4582,102359,McDonald Park Rd at Bayfield,,48.671483,-123.421684,,,0,,2,45
2033,4591,102368,McDonald Park Rd at Marina,,48.674299,-123.424055,,,0,,2,45
2034,4596,102373,Hwy 17 n/b ramp at McDonald Park Rd,,48.676008,-123.426125,,,0,,2,45
2035,2483,100157,Swartz Bay Ferry Terminal,,48.687991,-123.41227,,,0,,2,35
2036,4466,102240,Fifth at Bevan,,48.647294,-123.400401,,,0,,2,49
2037,4457,102228,Fifth at Ocean,,48.643691,-123.400468,,,0,,2,49
2038,4454,102221,Fifth at Weiler,,48.641658,-123.40046,,,0,,2,49
2039,4440,102205,Lochside at Frost,,48.637804,-123.403793,,,0,,2,49
2040,4435,102200,Lochside at Captains Walk,,48.636359,-123.405167,,,0,,2,49
2041,4427,102190,Lochside at Bakerview,,48.632818,-123.409121,,,0,,2,49
2042,4290,102038,McTavish Exchange,,48.63033,-123.412974,,,0,,2,35
2043,4419,102176,East Saanich at McTavish,,48.629512,-123.420458,,,0,,2,40
2044,4406,102158,East Saanich at Bazan Bay,,48.624778,-123.418814,,,0,,2,35
2045,4391,102143,"East Saanich, 8800 block",,48.620941,-123.417657,,,0,,2,35
2046,4383,102135,East Saanich at Dean Park Rd,,48.61796,-123.416655,,,0,,2,35
2047,4361,102112,East Saanich at Barrett,,48.613484,-123.416151,,,0,,2,40
2048,4344,102094,East Saanich at Haldon,,48.606596,-123.419117,,,0,,2,40
2049,4337,102087,East Saanich at Newman,,48.602501,-123.417304,,,0,,2,40
2050,4329,102079,East Saanich at Polo Park,,48.599495,-123.416922,,,0,,2,40
2051,4322,102072,East Saanich at Wallace,,48.596759,-123.416973,,,0,,2,40
2052,4308,102057,Saanichton Exchange Bay B,,48.593679,-123.417057,,,0,,2,106
2053,4284,102030,East Saanich at Prosser,,48.588293,-123.41938,,,0,,2,68
2054,4276,102021,East Saanich at Veyaness,,48.585678,-123.417486,,,0,,2,35
2055,4255,101996,"East Saanich, 7360 block",,48.582454,-123.411825,,,0,,2,35
2056,4233,101968,East Saanich at Stelly's Cross Rd,,48.579922,-123.409207,,,0,,2,35
2057,4236,101972,East Saanich at Dogwood,,48.57695,-123.406838,,,0,,2,35
2058,4207,101942,East Saanich at Cooperidge,,48.573275,-123.403766,,,0,,2,35
2059,4135,101861,Island View at Hwy 17,,48.57232,-123.398849,,,0,,2,35
2060,3737,101448,Royal Oak Exchange,,48.498866,-123.386955,,,0,,2,69
2061,2958,100650,Blanshard at Ravine - Uptown,,48.457012,-123.376022,,,0,,2,69
2062,3705,101416,Royal Oak Exchange,,48.499152,-123.387383,,,0,,2,34
2063,3607,101317,Island View at Hwy 17,,48.572451,-123.400268,,,0,,2,34
2064,4209,101944,East Saanich at Cooperidge,,48.573936,-123.40409,,,0,,2,34
2065,4219,101954,East Saanich at Dogwood,,48.577008,-123.40666,,,0,,2,34
2066,4220,101955,East Saanich at Stelly's Cross Rd,,48.579594,-123.408771,,,0,,2,34
2067,4272,102015,"East Saanich, 7370 block",,48.582671,-123.411851,,,0,,2,34
2068,4268,102011,East Saanich at Veyaness,,48.585497,-123.416567,,,0,,2,34
2069,4280,102025,East Saanich at Hovey,,48.587901,-123.419077,,,0,,2,34
2070,4305,102054,Saanichton Exchange,,48.593586,-123.416868,,,0,,2,34
2071,4321,102071,East Saanich at Patterson,,48.596596,-123.416773,,,0,,2,40
2072,4330,102080,East Saanich at Polo Park,,48.600192,-123.41671,,,0,,2,40
2073,4336,102086,East Saanich at Newman,,48.602609,-123.417121,,,0,,2,40
2074,4346,102096,East Saanich at Haldon,,48.606795,-123.419088,,,0,,2,40
2075,4362,102113,East Saanich at Barrett,,48.613669,-123.415921,,,0,,2,40
2076,4384,102136,East Saanich at Lowe,,48.618346,-123.416453,,,0,,2,34
2077,4392,102144,"East Saanich, 8800 block",,48.620746,-123.417386,,,0,,2,34
2078,4408,102160,East Saanich at Forest Park Dr,,48.625659,-123.419229,,,0,,2,40
2079,4420,102177,East Saanich at McTavish,,48.629618,-123.420254,,,0,,2,40
2080,4274,102018,McTavish Exch - airport connections,,48.630165,-123.413086,,,0,,2,34
2081,4425,102188,Lochside at Bakerview,,48.632776,-123.408984,,,0,,2,47
2082,4442,102207,Lochside at Frost,,48.638126,-123.403241,,,0,,2,47
2083,4450,102217,Fifth at Weiler,,48.64133,-123.400263,,,0,,2,47
2084,4456,102227,Fifth at Ocean,,48.644002,-123.400104,,,0,,2,47
2085,4465,102239,Fifth at Bevan,,48.647387,-123.400226,,,0,,2,47
2086,4156,101883,Tanner at Marie Meadows,,48.554355,-123.395026,,,0,,2,38
2087,4158,101886,Tanner at Conconi,,48.554344,-123.398271,,,0,,2,38
2088,4162,101890,Tanner at Rodolph,,48.554402,-123.40117,,,0,,2,38
2089,4166,101894,Central Saanich Rd at Tanner,,48.557134,-123.403432,,,0,,2,38
2090,4169,101897,Central Saanich Rd at Styan,,48.559804,-123.403459,,,0,,2,38
2091,4175,101904,Central Saanich Rd at Handy,,48.562316,-123.403459,,,0,,2,38
2092,4178,101907,Central Saanich Rd at Keating Cross Rd,,48.564839,-123.403454,,,0,,2,38
2093,4180,101909,Keating Cross Rd at Mirah,,48.565212,-123.407263,,,0,,2,38
2094,4184,101915,Keating Cross Rd at Veyaness,,48.565216,-123.410263,,,0,,2,38
2095,4187,101919,Keating Cross Rd at Rajpur,,48.565205,-123.414381,,,0,,2,38
2096,4189,101921,Keating Cross Rd at Oldfield,,48.565216,-123.418377,,,0,,2,38
2097,4192,101925,Keating Cross Rd at Bryn,,48.56558,-123.427515,,,0,,2,38
2098,4195,101930,Keating Cross Rd at West Saanich,,48.565273,-123.437712,,,0,,2,38
2099,4208,101943,Benvenuto at Knott,,48.566311,-123.447453,,,0,,2,45
2100,4201,101936,Benvenuto at Garden Gate,,48.563843,-123.453728,,,0,,2,45
2101,4199,101934,Benvenuto at Trudeau,,48.562992,-123.456136,,,0,,2,45
2102,4206,101941,Wallace at Benvenuto,,48.563304,-123.458824,,,0,,2,47
2103,4211,101946,Wallace at Woodward,,48.564416,-123.460087,,,0,,2,46
2104,4218,101953,Wallace 6770 block,,48.566319,-123.461365,,,0,,2,46
2105,4225,101960,Wallace at McKenna,,48.568765,-123.459378,,,0,,2,46
2106,4223,101958,Wallace at Springside,,48.569585,-123.455646,,,0,,2,46
2107,4229,101964,Wallace at Llanfair,,48.570698,-123.454023,,,0,,2,46
2108,4235,101971,Wallace at Marchant,,48.572723,-123.451064,,,0,,2,60
2109,4239,101975,Wallace at Sluggett,,48.573904,-123.449065,,,0,,2,60
2110,4245,101985,West Saanich at Wallace,,48.576243,-123.446543,,,0,,2,92
2111,4258,101999,West Saanich at Verdier,,48.578801,-123.450405,,,0,,2,53
2112,4267,102010,Stelly's Cross at West Saanich,,48.579677,-123.450765,,,0,,2,46
2113,4260,102002,Stelly's Cross Rd at Early,,48.579639,-123.445677,,,0,,2,46
2114,34317,101677,Stelly's Cross Rd at Gowdy,,48.57964,-123.443524,,,0,,2,46
2115,4252,101992,Stelly's Cross Rd at Saanich Fairgrounds,,48.579658,-123.436883,,,0,,2,46
2116,4248,101988,Stelly's Cross Rd at Stelly's Sec School,,48.579664,-123.431969,,,0,,2,46
2117,4244,101984,Wallace at Stelly's Cross Rd,,48.580118,-123.425682,,,0,,2,46
2118,4266,102009,Wallace at White,,48.584478,-123.423569,,,0,,2,46
2119,4278,102023,Wallace at Hovey,,48.586614,-123.422538,,,0,,2,46
2120,4281,102026,Wallace at Prosser,,48.588528,-123.421743,,,0,,2,46
2121,4303,102052,Wallace at Cultra,,48.592713,-123.421369,,,0,,2,46
2122,4316,102065,Wallace at Mt Newton Cross Rd,,48.594442,-123.419646,,,0,,2,46
2123,4215,101950,Butchart Gardens,,48.563102,-123.466572,,,0,,2,33
2124,57474,102017,Benvenuto at Tod Inlet,,48.562489,-123.464226,,,0,,2,52
2125,4279,102024,Wallace at Hovey,,48.586527,-123.422791,,,0,,2,41
2126,4250,101990,Wallace at White,,48.584441,-123.4238,,,0,,2,41
2127,4246,101986,Wallace at Stelly's Cross Rd,,48.579873,-123.425996,,,0,,2,41
2128,4234,101969,"Wallace, 7200 block - Stelly's Sec Sch",,48.576094,-123.433334,,,0,,2,33
2129,4257,101998,Verdier at West Saanich,,48.577965,-123.450417,,,0,,2,47
2130,4261,102003,Verdier at Holly Park,,48.577936,-123.455635,,,0,,2,47
2131,4271,102014,Verdier at Hagan,,48.577953,-123.458286,,,0,,2,47
2132,4277,102022,Verdier at Keally,,48.577957,-123.46307,,,0,,2,47
2133,4273,102016,Brentwood Dr at Verdier,,48.576656,-123.464756,,,0,,2,47
2134,4251,101991,Brentwood Dr at Sluggett,,48.573677,-123.462191,,,0,,2,47
2135,4243,101983,Brentwood Dr at Marchant,,48.572532,-123.461052,,,0,,2,47
2136,4240,101977,Marchant at Hagan,,48.57237,-123.457712,,,0,,2,47
2137,4231,101966,Wallace at Marin Park,,48.571795,-123.45271,,,0,,2,33
2138,4227,101962,Wallace at Springside,,48.569821,-123.455547,,,0,,2,33
2139,4228,101963,Wallace at McKenna,,48.568865,-123.459424,,,0,,2,33
2140,4217,101952,Wallace 6760 block,,48.565865,-123.461295,,,0,,2,33
2141,4210,101945,Wallace at Woodward,,48.564338,-123.460256,,,0,,2,33
2142,4205,101940,Wallace at Benvenuto,,48.563336,-123.45917,,,0,,2,33
2143,4200,101935,Benvenuto at Trudeau,,48.562857,-123.456144,,,0,,2,36
2144,4198,101933,Benvenuto at Garden Gate,,48.563787,-123.453527,,,0,,2,36
2145,4204,101939,Benvenuto at Knott,,48.566159,-123.447089,,,0,,2,36
2146,4194,101929,Keating Cross Rd at West Saanich,,48.565123,-123.437382,,,0,,2,36
2147,4191,101924,Keating Cross Rd at Bryn,,48.565713,-123.42649,,,0,,2,36
2148,4188,101920,Keating Cross Rd at Kirkpatrick,,48.565061,-123.419304,,,0,,2,36
2149,4186,101917,Keating Cross Rd at Rajpur,,48.56507,-123.41313,,,0,,2,36
2150,4181,101911,Keating Cross Rd at Veyaness,,48.565065,-123.410068,,,0,,2,36
2151,4179,101908,Keating Cross Rd at Mirah,,48.565071,-123.406231,,,0,,2,36
2152,4177,101906,Central Saanich Rd at Keating Cross Rd,,48.564535,-123.403656,,,0,,2,36
2153,4172,101901,Central Saanich Rd at Styan,,48.560434,-123.403667,,,0,,2,36
2154,4167,101895,Central Saanich Rd at Tanner,,48.55711,-123.403635,,,0,,2,36
2155,4160,101888,Tanner at Rodolph,,48.554253,-123.400433,,,0,,2,36
2156,4161,101889,Tanner at Conconi,,48.554225,-123.398228,,,0,,2,36
2157,4157,101885,Tanner at Marie Meadows,,48.554219,-123.395008,,,0,,2,36
2158,4265,102007,Butchart Gardens,,48.563081,-123.466557,,,0,,2,25
2159,145221,102524,Saanichton Exchange,,48.594141,-123.416399,,,0,,2,20
2160,4318,102067,Saanich Peninsula Hospital,,48.596027,-123.410329,,,0,,2,32
2161,4301,102050,Mt Newton Cross Rd at Saanich Pen Hosp,,48.594065,-123.409485,,,0,,2,13
2162,4297,102046,Mt Newton Cross Rd at Central Saanich Rd,,48.594065,-123.40293,,,0,,2,15
2163,4293,102042,Mt Newton Cross Rd at Hwy 17,,48.594075,-123.399955,,,0,,2,15
2164,4291,102040,Mt Newton Cross Rd at Hermwood,,48.594107,-123.396292,,,0,,2,15
2165,4288,102036,Mt Newton Cross Rd at Stautw,,48.59298,-123.391734,,,0,,2,37
2166,4309,102058,Lochside at Ferguson,,48.595622,-123.394572,,,0,,2,15
2167,4324,102074,Lochside at James Island,,48.599202,-123.39462,,,0,,2,15
2168,4327,102077,Lochside at Wakeman,,48.600634,-123.395729,,,0,,2,15
2169,4334,102084,Lochside at Newman,,48.604068,-123.395988,,,0,,2,15
2170,4341,102091,Lochside at Cascade,,48.606616,-123.396439,,,0,,2,15
2171,4351,102101,"Lochside, 8390 block",,48.610395,-123.399305,,,0,,2,15
2172,4358,102108,Lochside at Wardle,,48.614346,-123.401289,,,0,,2,15
2173,4385,102137,Lochside at Lowe,,48.61839,-123.404428,,,0,,2,15
2174,4400,102152,"Lochside, 8890 block",,48.62359,-123.407998,,,0,,2,15
2175,4275,102020,McTavish Exchange,,48.630166,-123.413286,,,0,,2,43
2176,4487,102264,Henry at Seventh,,48.653291,-123.403577,,,0,,2,8
2177,4486,102263,Henry at Chicory,,48.653293,-123.406661,,,0,,2,8
2178,4500,102277,Bowerbank at Mills,,48.655737,-123.41008,,,0,,2,8
2179,4511,102288,Bowerbank at Malaview,,48.657361,-123.410069,,,0,,2,8
2180,4525,102302,Bowerbank at Piercy,,48.660253,-123.410035,,,0,,2,8
2181,145225,102538,Swartz Bay Ferry Terminal,,48.687861,-123.412281,,,0,,2,8
2182,4528,102305,Bowerbank at Vallis,,48.662056,-123.41028,,,0,,2,8
2183,4524,102301,Bowerbank at Calvin,,48.659836,-123.410265,,,0,,2,8
2184,4509,102286,Bowerbank at Malaview,,48.656789,-123.41027,,,0,,2,8
2185,4499,102276,Mills at Bowerbank,,48.655267,-123.409866,,,0,,2,8
2186,4488,102265,Henry at Chicory,,48.65316,-123.406542,,,0,,2,8
2187,4485,102262,Henry at Resthaven,,48.653156,-123.403015,,,0,,2,8
2188,4476,102253,James White Blvd at Fifth,,48.650168,-123.400599,,,0,,2,110
2189,4285,102032,McTavish Exchange,,48.630332,-123.413204,,,0,,2,44
2190,4401,102153,"Lochside, 8880 block",,48.623557,-123.408165,,,0,,2,17
2191,4378,102130,Lochside at Lowe,,48.618276,-123.404538,,,0,,2,17
2192,4360,102110,Lochside at Wardle,,48.614266,-123.401436,,,0,,2,17
2193,4350,102100,"Lochside,  8380 block",,48.610092,-123.399266,,,0,,2,17
2194,4339,102089,Lochside at Cascade,,48.606417,-123.396523,,,0,,2,17
2195,4332,102082,Lochside at Newman,,48.603827,-123.396202,,,0,,2,17
2196,4325,102075,Lochside at Wakeman,,48.600388,-123.395731,,,0,,2,17
2197,4320,102070,Lochside at James Island,,48.598742,-123.394782,,,0,,2,17
2198,123816,102477,Lochside at Hackett,,48.596938,-123.39475,,,0,,2,17
2199,4302,102051,Lochside at Mt Newton Cross Rd,,48.594543,-123.394759,,,0,,2,17
2200,4294,102043,Mt Newton Cross Rd at Hermwood,,48.594237,-123.396891,,,0,,2,17
2201,4296,102045,Mt Newton Cross Rd at Hwy 17,,48.594208,-123.399402,,,0,,2,17
2202,4300,102049,Mt Newton Cross Rd at Central Saanich Rd,,48.594198,-123.404019,,,0,,2,17
2203,4306,102055,Mt Newton Cross Rd at Saanich Pen Hosp,,48.594193,-123.410441,,,0,,2,17
2204,145222,102527,Saanichton Exchange,,48.594236,-123.416325,,,0,,2,23
2205,4317,102066,Wallace at Lisnoe,,48.594024,-123.420553,,,0,,2,8
2206,4286,102033,Wallace at Cultra,,48.592023,-123.421812,,,0,,2,8
2207,4298,102047,Wallace at Prosser,,48.589114,-123.421867,,,0,,2,8
2208,4249,101989,Stelly's Cross Rd at Stelly's Sec School,,48.57979,-123.432762,,,0,,2,8
2209,4254,101994,Stelly's Cross Rd at Saanich Fairgrounds,,48.579795,-123.436104,,,0,,2,8
2210,34291,101650,Stelly's Cross Rd at Gowdy,,48.579811,-123.440727,,,0,,2,8
2211,4262,102004,Stelly's Cross Rd at Early,,48.579774,-123.445729,,,0,,2,8
2212,4270,102013,West Saanich at Verdier,,48.578348,-123.450169,,,0,,2,16
2213,4242,101982,West Saanich at Clarke,,48.575983,-123.446625,,,0,,2,8
2214,4238,101974,West Saanich at Wallace,,48.57484,-123.444807,,,0,,2,16
2215,4224,101959,West Saanich at Marchant,,48.572732,-123.442692,,,0,,2,15
2216,4212,101947,West Saanich at Carriage Ln,,48.569076,-123.441512,,,0,,2,15
2217,4197,101932,West Saanich at Kersey,,48.566773,-123.440087,,,0,,2,15
2218,3362,101062,Stautw at Pullock,,48.590273,-123.387393,,,0,,2,5
2219,3308,101007,Stautw at Church,,48.58915,-123.385231,,,0,,2,5
2220,3253,100952,Jimmy at Stautw,,48.588375,-123.378693,,,0,,2,5
2221,3330,101029,Mt Newton Cross Rd. at Church,,48.591121,-123.384579,,,0,,2,5
2222,4480,102257,Galaran at Skylark,,48.650908,-123.412328,,,0,,2,16
2223,4489,102266,Galaran at Henry,,48.653555,-123.412314,,,0,,2,16
2224,4502,102279,Mills at McDonald Park Rd,,48.655407,-123.416561,,,0,,2,16
2225,4504,102281,"Mills Rd, 1920 block",,48.655415,-123.420116,,,0,,2,16
2226,4507,102284,Mills at Avenger Way,,48.655429,-123.423247,,,0,,2,16
2227,4512,102289,Mills at Littlewood,,48.655447,-123.430911,,,0,,2,16
2228,4521,102298,Mills at West Saanich,,48.655459,-123.444401,,,0,,2,16
2229,4496,102273,West Saanich at Willingdon,,48.64974,-123.447511,,,0,,2,8
2230,4484,102261,"West Saanich, 9730 block",,48.646491,-123.455853,,,0,,2,8
2231,4477,102254,West Saanich at Ardmore,,48.643914,-123.458107,,,0,,2,8
2232,4461,102234,West Saanich at Bradley Dyne,,48.638745,-123.458102,,,0,,2,8
2233,4436,102201,West Saanich at McTavish,,48.630154,-123.458203,,,0,,2,8
2234,4428,102191,West Saanich at North Ridge,,48.627076,-123.458115,,,0,,2,8
2235,4417,102169,West Saanich at Theh Le Lum,,48.621594,-123.464575,,,0,,2,8
2236,4412,102164,"West Saanich, 8740 block",,48.619902,-123.466153,,,0,,2,8
2237,4396,102148,West Saanich at Lawrence,,48.610869,-123.473828,,,0,,2,8
2238,4367,102118,West Saanich at McPhail,,48.604467,-123.471842,,,0,,2,8
2239,4348,102098,West Saanich at Mt Newton Cross Rd,,48.599042,-123.465892,,,0,,2,8
2240,4287,102035,West Saanich at Shaker Church Rd,,48.583817,-123.457704,,,0,,2,8
2241,4193,101928,West Saanich at Keating Cross Rd,,48.564576,-123.43813,,,0,,2,8
2242,4182,101912,West Saanich at Old West Saanich,,48.560931,-123.436667,,,0,,2,8
2243,4171,101900,"West Saanich, 6340 block",,48.554589,-123.438651,,,0,,2,8
2244,4165,101893,West Saanich at Durrance,,48.550609,-123.439901,,,0,,2,8
2245,4164,101892,West Saanich at Glen Nevis,,48.547518,-123.44142,,,0,,2,8
2246,4147,101873,"West Saanich, 5750 block",,48.541383,-123.436804,,,0,,2,8
2247,4131,101856,West Saanich at Wallace,,48.535154,-123.437506,,,0,,2,8
2248,4115,101840,West Saanich at Matterhorn,,48.532291,-123.438554,,,0,,2,8
2249,4085,101808,West Saanich at Hartland,,48.527395,-123.436497,,,0,,2,8
2250,4061,101783,West Saanich at Prospect Lake,,48.523721,-123.43061,,,0,,2,8
2251,85876,102180,West Saanich at Observatory,,48.517709,-123.422014,,,0,,2,8
2252,3908,101627,West Saanich at Goward,,48.510912,-123.414667,,,0,,2,8
2253,3864,101575,West Saanich at Beaver,,48.508461,-123.410053,,,0,,2,8
2254,3825,101536,Beaver Lake Rd at West Saanich,,48.505135,-123.408026,,,0,,2,8
2255,3792,101503,Beaver at Quayle - The Gardens at HCP,,48.501615,-123.413839,,,0,,2,8
2256,3817,101528,Quayle at Elk,,48.502751,-123.418535,,,0,,2,8
2257,88237,102181,Interurban at Viaduct Ave W,,48.498384,-123.419436,,,0,,2,8
2258,3782,101493,Interurban at Viaduct Ave W,,48.499109,-123.419171,,,0,,2,7
2259,3815,101526,Quayle at Elk,,48.502642,-123.418587,,,0,,2,7
2260,3789,101500,Quayle at Beaver - The Gardens at HCP,,48.501418,-123.413943,,,0,,2,7
2261,3813,101524,Beaver Lake Rd at West Saanich,,48.505014,-123.407927,,,0,,2,7
2262,3876,101590,West Saanich at Old West Saanich,,48.509171,-123.411316,,,0,,2,7
2263,3914,101633,West Saanich at Interurban,,48.511679,-123.414575,,,0,,2,7
2264,4003,101725,West Saanich at Observatory,,48.517775,-123.421817,,,0,,2,7
2265,4064,101786,West Saanich at Prospect Lake,,48.523874,-123.430636,,,0,,2,7
2266,4087,101810,West Saanich at Hartland,,48.527586,-123.436484,,,0,,2,7
2267,4119,101844,West Saanich at Matterhorn,,48.533865,-123.437665,,,0,,2,7
2268,4132,101857,West Saanich at Wallace,,48.535538,-123.437182,,,0,,2,7
2269,4152,101878,"West Saanich, 5780 block",,48.543193,-123.436708,,,0,,2,7
2270,4163,101891,West Saanich at Glen Nevis,,48.54772,-123.441083,,,0,,2,7
2271,4168,101896,West Saanich at Durrance,,48.551218,-123.440076,,,0,,2,7
2272,4170,101899,"West Saanich, 6090 block",,48.554236,-123.438658,,,0,,2,7
2273,4183,101914,West Saanich at Old West Saanich,,48.560897,-123.436471,,,0,,2,7
2274,4196,101931,West Saanich at Keating Cross Rd,,48.56585,-123.439058,,,0,,2,7
2275,4213,101948,West Saanich at Carriage Ln,,48.56928,-123.441331,,,0,,2,7
2276,4226,101961,West Saanich at Marchant,,48.572902,-123.4426,,,0,,2,7
2277,4237,101973,West Saanich at Columbia,,48.574728,-123.444359,,,0,,2,7
2278,4289,102037,West Saanich at Shaker Church Rd,,48.584279,-123.458072,,,0,,2,7
2279,4349,102099,West Saanich at Mt Newton Cross Rd,,48.599552,-123.466028,,,0,,2,7
2280,4370,102121,West Saanich at McPhail,,48.605256,-123.472387,,,0,,2,7
2281,4388,102140,West Saanich at Lawrence,,48.609714,-123.474136,,,0,,2,7
2282,4413,102165,West Saanich at Theh Le Lum,,48.620579,-123.465272,,,0,,2,7
2283,4429,102194,West Saanich at North Ridge,,48.627681,-123.457902,,,0,,2,7
2284,4441,102206,West Saanich at McTavish,,48.631694,-123.458089,,,0,,2,7
2285,4458,102229,"West Saanich, 9380 block",,48.637149,-123.457974,,,0,,2,7
2286,4479,102256,West Saanich at Ardmore,,48.643624,-123.457919,,,0,,2,7
2287,4483,102260,"West Saanich, 9740 block",,48.646399,-123.455695,,,0,,2,7
2288,4491,102268,West Saanich at Willingdon,,48.649547,-123.447554,,,0,,2,7
2289,4057,101779,Mills at West Saanich,,48.655311,-123.444894,,,0,,2,7
2290,4090,101813,Mills at Littlewood,,48.655323,-123.432043,,,0,,2,7
2291,4091,101814,Mills at Avenger Way,,48.655275,-123.424981,,,0,,2,7
2292,4490,102267,McDonald Park Rd at Henry,,48.653135,-123.416925,,,0,,2,15
2293,4529,102306,West Saanich at Tapping,,48.65882,-123.447018,,,0,,2,8
2294,4564,102341,"West Saanich, 10340 block",,48.663132,-123.451331,,,0,,2,8
2295,4571,102348,West Saanich at Totem Ln,,48.664779,-123.454026,,,0,,2,8
2296,4586,102363,West Saanich at Towner Park,,48.66808,-123.457759,,,0,,2,8
2297,4598,102375,Downey at West Saanich,,48.673549,-123.460453,,,0,,2,8
2298,4600,102377,"Downey, 830 block",,48.673527,-123.464328,,,0,,2,8
2299,4601,102378,Downey at Derrick,,48.673517,-123.470566,,,0,,2,8
2300,4603,102380,"Downey, 550 block",,48.673561,-123.475989,,,0,,2,8
2301,4604,102382,Downey at Madrona,,48.673566,-123.480231,,,0,,2,8
2302,4612,102391,Madrona at Cromar,,48.675547,-123.482296,,,0,,2,8
2303,4618,102401,Madrona at Wain,,48.676688,-123.484773,,,0,,2,8
2304,4615,102396,Wain at Deep Cove,,48.677068,-123.478321,,,0,,2,8
2305,4614,102395,"Wain, 550 block",,48.677048,-123.475712,,,0,,2,8
2306,4610,102388,Wain at Derrick,,48.677015,-123.471082,,,0,,2,8
2307,4606,102384,"Wain, 820 block",,48.677026,-123.464781,,,0,,2,8
2308,4605,102383,"Wain, 920 block",,48.677033,-123.460835,,,0,,2,8
2309,4611,102389,West Saanich at Birch,,48.679197,-123.457681,,,0,,2,8
2310,4616,102399,West Saanich at Clayton,,48.680998,-123.457682,,,0,,2,8
2311,4619,102402,West Saanich at Maple,,48.682414,-123.457684,,,0,,2,8
2312,4624,102412,West Saanich at Tatlow,,48.687246,-123.457745,,,0,,2,8
2313,4629,102419,West Saanich at Brickley,,48.692183,-123.457727,,,0,,2,8
2314,4634,102425,West Saanich at Readings,,48.694506,-123.457754,,,0,,2,8
2315,4636,102428,Lands End at West Saanich,,48.695656,-123.45739,,,0,,2,8
2316,4633,102424,Lands End at Cloake Hill,,48.695915,-123.451872,,,0,,2,8
2317,4637,102429,Lands End at Seabreeze,,48.69728,-123.447083,,,0,,2,8
2318,4638,102431,"Lands End, 1350 block",,48.697757,-123.443537,,,0,,2,8
2319,4632,102423,Lands End at Howcrest,,48.697493,-123.439346,,,0,,2,8
2320,4626,102415,Lands End at Junco,,48.69446,-123.429998,,,0,,2,8
2321,4625,102413,Lands End at Hedgerow,,48.691736,-123.427882,,,0,,2,8
2322,4622,102409,Lands End at Elderberry,,48.690212,-123.424706,,,0,,2,8
2323,4621,102405,Lands End at Greenpark,,48.688015,-123.420039,,,0,,2,8
2324,4617,102400,Lands End at Woodpecker,,48.685651,-123.416719,,,0,,2,8
2325,4608,102386,Lands End at Hwy 17 s/b ramp,,48.683944,-123.413865,,,0,,2,8
2326,4527,102304,"McDonald Park Rd, 10280 block",,48.661137,-123.416926,,,0,,2,8
2327,4523,102300,McDonald Park Rd at Glamorgan,,48.659395,-123.416932,,,0,,2,8
2328,4506,102283,McDonald Park Rd at Mills,,48.655887,-123.416946,,,0,,2,8
2329,3220,100917,Fifth at Malaview,,48.656697,-123.400449,,,0,,2,21
2330,4437,102202,Willingdon at East Saanich,,48.63529,-123.421444,,,0,,2,33
2331,4455,102226,Victoria International Airport,,48.640386,-123.431555,,,0,,2,55
2332,4434,102199,Willingdon at East Saanich,,48.635172,-123.421331,,,0,,2,33
2333,4410,102162,Forest Park Dr at Haro Park,,48.625269,-123.421727,,,0,,2,5
2334,4411,102163,Forest Park Dr at Cresswell,,48.625718,-123.426987,,,0,,2,5
2335,4403,102155,"Forest Park Dr, 8870 block",,48.623265,-123.427328,,,0,,2,5
2336,4399,102151,Forest Park Dr at Mayneview,,48.619874,-123.426996,,,0,,2,5
2337,4390,102142,Forest Park Dr at Dean Park Rd,,48.617901,-123.429068,,,0,,2,5
2338,4386,102138,Barrett at Dean Park Rd,,48.617095,-123.432331,,,0,,2,5
2339,4376,102128,Barrett at Kingcome,,48.614243,-123.431534,,,0,,2,5
2340,4373,102125,Barrett at Colburne,,48.613942,-123.428878,,,0,,2,5
2341,4364,102115,Barrett at Trincomali,,48.613033,-123.423723,,,0,,2,5
2342,4374,102126,Barrett at Sandover,,48.614791,-123.421736,,,0,,2,5
2343,4369,102120,Barrett at Sandover,,48.614186,-123.418571,,,0,,2,5
2344,4372,102124,Barrett at Sandover,,48.615009,-123.421668,,,0,,2,6
2345,4363,102114,Barrett at Trincomali,,48.612753,-123.424884,,,0,,2,6
2346,4371,102122,Barrett at Colburne,,48.614159,-123.428992,,,0,,2,6
2347,4377,102129,Barrett at Kingcome,,48.614524,-123.431386,,,0,,2,6
2348,4387,102139,Barrett at Dean Park Rd,,48.617196,-123.432173,,,0,,2,6
2349,4389,102141,Forest Park Dr at Dean Park Rd,,48.617966,-123.428879,,,0,,2,6
2350,4397,102149,Forest Park Dr at Mayneview,,48.619982,-123.425928,,,0,,2,6
2351,4404,102156,"Forest Park Dr, 8880 block",,48.623706,-123.427403,,,0,,2,6
2352,4409,102161,Forest Park Dr at Cresswell,,48.625542,-123.426983,,,0,,2,6
2353,4407,102159,Forest Park Dr at E Saanich,,48.625119,-123.420457,,,0,,2,6
2354,4446,102211,Legislature Terminal,,48.418647,-123.368962,,,0,,2,97
2355,3218,100915,Douglas at Blackberry,,48.469408,-123.379288,,,0,,2,0
2356,3244,100943,Douglas at Sanctuary,,48.471078,-123.381002,,,0,,2,0
2357,3297,100996,Douglas at Rogers,,48.474984,-123.383499,,,0,,2,0
2358,3344,101044,Lily at Douglas,,48.47819,-123.384483,,,0,,2,0
2359,3347,101047,Lily at Lark,,48.478689,-123.382016,,,0,,2,0
2360,3177,100874,Cedar Hill Cross at Synod,,48.463247,-123.338636,,,0,,2,0
2361,3171,100868,Cedar Hill Cross Rd. at Merriman,,48.464204,-123.342388,,,0,,2,0
2362,3182,100879,Cedar Hill Cross at Epsom,,48.465491,-123.345639,,,0,,2,0
2363,3189,100886,Cedar Hill Cross at Marjean,,48.466249,-123.347719,,,0,,2,0
